,시도,주차장명,주차장유형,주소,위도,경도,관리기관,전화번호,특이사항,2_14(수),2_15(목),2_16(금),2_17(토),2_18(일)
0,강원도,동부시장,노외,강원도 춘천시 동부시장길 8-10,37.8768903,127.7342144,춘천도시공사,033-240-1656,연휴기간 무료운영,"14,00:00~24:00","15,00:00~24:00","16,00:00~24:00","17,00:00~24:00","18,00:00~24:00"
1,강원도,중앙노외,노외,강원도 춘천시 죽림동 93번지외(4필지),37.877075,127.7251949,춘천도시공사,033-240-1656,연휴기간 무료운영,"14,00:00~24:00","15,00:00~24:00","16,00:00~24:00","17,00:00~24:00","18,00:00~24:00"
2,강원도,새명동,노외,강원도 춘천시 조운동 60-3번지,37.8796757,127.7296357,춘천도시공사,033-240-1656,연휴기간 무료운영,"14,00:00~24:00","15,00:00~24:00","16,00:00~24:00","17,00:00~24:00","18,00:00~24:00"
3,강원도,석사근린공원,노외,강원도 춘천시 석사동 804번지외(4필지),37.8561212,127.7388449,춘천도시공사,033-240-1656,연휴기간 무료운영,"14,00:00~24:00","15,00:00~24:00","16,00:00~24:00","17,00:00~24:00","18,00:00~24:00"
4,강원도,낙원노외,노외,강원도 춘천시 낙원동 63-3번지일원,37.8791909,127.7253508,춘천도시공사,033-240-1656,연휴기간 무료운영,"14,00:00~24:00","15,00:00~24:00","16,00:00~24:00","17,00:00~24:00","18,00:00~24:00"
5,강원도,(구)춘여고 시청사,노외,강원도 춘천시 삭주로3,37.8823499,127.7331546,춘천도시공사,033-240-1656,연휴기간 무료운영,"14,00:00~24:00","15,00:00~24:00","16,00:00~24:00","17,00:00~24:00","18,00:00~24:00"
6,강원도,스카이워크,노외,강원도 춘천시 근화동 47-7,37.880565,127.7124994,춘천도시공사,033-240-1656,연휴기간 무료운영,"14,00:00~24:00","15,00:00~24:00","16,00:00~24:00","17,00:00~24:00","18,00:00~24:00"
7,강원도,석사노외,노외,강원도 춘천시 석사동 658번지,37.8582707,127.7407374,춘천도시공사,033-240-1656,연휴기간 무료운영,"14,00:00~24:00","15,00:00~24:00","16,00:00~24:00","17,00:00~24:00","18,00:00~24:00"
8,강원도,약사명동사,노외,강원도 춘천시 죽림동 109-4번지,37.8767783,127.7246993,춘천도시공사,033-240-1656,연휴기간 무료운영,"14,00:00~24:00","15,00:00~24:00","16,00:00~24:00","17,00:00~24:00","18,00:00~24:00"
9,강원도,견인보관소,노외,강원도 춘천시 근화동 737번지,37.8778362,127.7145227,춘천도시공사,033-240-1656,연휴기간 무료운영,"14,00:00~24:00","15,00:00~24:00","16,00:00~24:00","17,00:00~24:00","18,00:00~24:00"
10,강원도,강촌노외,노외,강원도 춘천시 강촌리 243번지,37.8132961,127.6339139,춘천도시공사,033-240-1656,연휴기간 무료운영,"14,00:00~24:00","15,00:00~24:00","16,00:00~24:00","17,00:00~24:00","18,00:00~24:00"
11,강원도,서부노외,노외,강원도 춘천시 소양로2가 45-1번지,37.8861848,127.7238639,춘천도시공사,033-240-1656,연휴기간 무료운영,"14,00:00~24:00","15,00:00~24:00","16,00:00~24:00","17,00:00~24:00","18,00:00~24:00"
12,강원도,서부시장,노외,강원도 춘천시 소양로2가 162-9번지,37.8854433,127.7242805,춘천도시공사,033-240-1656,연휴기간 무료운영,"14,00:00~24:00","15,00:00~24:00","16,00:00~24:00","17,00:00~24:00","18,00:00~24:00"
13,강원도,약사노외,노외,강원도 춘천시 약사동 25-4번지,37.8752125,127.7278674,춘천도시공사,033-240-1656,연휴기간 무료운영,"14,00:00~24:00","15,00:00~24:00","16,00:00~24:00","17,00:00~24:00","18,00:00~24:00"
14,강원도,춘천중학교뒤,노외,강원도 춘천시 근화동 710-49번지,37.8741415,127.7203192,춘천도시공사,033-240-1656,연휴기간 무료운영,"14,00:00~24:00","15,00:00~24:00","16,00:00~24:00","17,00:00~24:00","18,00:00~24:00"
15,강원도,택지개발지구내,노외,강원도 춘천시 후평3동 876번지,37.8756784,127.7580431,춘천도시공사,033-240-1656,연휴기간 무료운영,"14,00:00~24:00","15,00:00~24:00","16,00:00~24:00","17,00:00~24:00","18,00:00~24:00"
16,강원도,택지개발지구내,노외,강원도 춘천시 후평3동 871-4번지,37.8759745,127.757883,춘천도시공사,033-240-1656,연휴기간 무료운영,"14,00:00~24:00","15,00:00~24:00","16,00:00~24:00","17,00:00~24:00","18,00:00~24:00"
17,강원도,후평 노외,노외,강원도 춘천시 후평3동 891-7번지,37.8724106,127.7529263,춘천도시공사,033-240-1656,연휴기간 무료운영,"14,00:00~24:00","15,00:00~24:00","16,00:00~24:00","17,00:00~24:00","18,00:00~24:00"
18,강원도,택지개발지구내,노외,강원도 춘천시 석사동 649번지,37.8611188,127.7419628,춘천도시공사,033-240-1656,연휴기간 무료운영,"14,00:00~24:00","15,00:00~24:00","16,00:00~24:00","17,00:00~24:00","18,00:00~24:00"
19,강원도,택지개발지구내,노외,강원도 춘천시 석사동 680번지,37.8581589,127.7456745,춘천도시공사,033-240-1656,연휴기간 무료운영,"14,00:00~24:00","15,00:00~24:00","16,00:00~24:00","17,00:00~24:00","18,00:00~24:00"
20,강원도,일성아파트뒤,노외,강원도 춘천시 퇴계동 693-7번지일원,37.8669632,127.7265214,춘천도시공사,033-240-1656,연휴기간 무료운영,"14,00:00~24:00","15,00:00~24:00","16,00:00~24:00","17,00:00~24:00","18,00:00~24:00"
21,강원도,퇴계 노외,노외,강원도 춘천시 퇴계동 918번지외3필지,37.8618618,127.725048,춘천도시공사,033-240-1656,연휴기간 무료운영,"14,00:00~24:00","15,00:00~24:00","16,00:00~24:00","17,00:00~24:00","18,00:00~24:00"
22,강원도,퇴계근린공원,노외,강원도 춘천시 퇴계동 877번지,37.8603886,127.7227589,춘천도시공사,033-240-1656,연휴기간 무료운영,"14,00:00~24:00","15,00:00~24:00","16,00:00~24:00","17,00:00~24:00","18,00:00~24:00"
23,강원도,퇴계근린공원,노외,강원도 춘천시 퇴계동 877번지,37.8603886,127.7227589,춘천도시공사,033-240-1656,연휴기간 무료운영,"14,00:00~24:00","15,00:00~24:00","16,00:00~24:00","17,00:00~24:00","18,00:00~24:00"
24,강원도,MBC앞 노외,노외,강원도 춘천시 삼천동 239-4번지,37.874637,127.7037182,춘천도시공사,033-240-1656,연휴기간 무료운영,"14,00:00~24:00","15,00:00~24:00","16,00:00~24:00","17,00:00~24:00","18,00:00~24:00"
25,강원도,팔호 노외,노외,강원도 춘천시 효자2동 652-1번지,37.8755985,127.7355638,춘천도시공사,033-240-1656,연휴기간 무료운영,"14,00:00~24:00","15,00:00~24:00","16,00:00~24:00","17,00:00~24:00","18,00:00~24:00"
26,강원도,문화예술회관,노외,강원도 춘천시 효자1동 산46-3번지,37.8722055,127.7274709,춘천도시공사,033-240-1656,연휴기간 무료운영,"14,00:00~24:00","15,00:00~24:00","16,00:00~24:00","17,00:00~24:00","18,00:00~24:00"
27,강원도,소양 노외,노외,강원도 춘천시 요선동 208-1번지,37.882286,127.7261521,춘천도시공사,033-240-1656,연휴기간 무료운영,"14,00:00~24:00","15,00:00~24:00","16,00:00~24:00","17,00:00~24:00","18,00:00~24:00"
28,강원도,102보충대노외,노외,강원도 춘천시 신북읍 용산리 231-21,37.9415193,127.7123355,춘천도시공사,033-240-1656,연휴기간 무료운영,"14,00:00~24:00","15,00:00~24:00","16,00:00~24:00","17,00:00~24:00","18,00:00~24:00"
29,강원도,남부 노외,노외,강원도 춘천시 효자1동 684-9번지,37.8703851,127.7252834,춘천도시공사,033-240-1656,연휴기간 무료운영,"14,00:00~24:00","15,00:00~24:00","16,00:00~24:00","17,00:00~24:00","18,00:00~24:00"
30,강원도,소양댐주차장,노외,강원도 춘천시 신북읍 천전리 15-3,37.9376073,127.80139,춘천도시공사,033-240-1656,연휴기간 무료운영,"14,00:00~24:00","15,00:00~24:00","16,00:00~24:00","17,00:00~24:00","18,00:00~24:00"
31,강원도,느치골제1,노외,강원도 춘천시 신북읍 천전리 산73-7(소양댐너치골제1주차장),37.947314,127.804392,춘천도시공사,033-240-1656,연휴기간 무료운영,"14,00:00~24:00","15,00:00~24:00","16,00:00~24:00","17,00:00~24:00","18,00:00~24:00"
32,강원도,느치골제2,노외,강원도 춘천시 신북읍 천전리 산73-7(소양댐너치골제2주차장),37.947331,127.806227,춘천도시공사,033-240-1656,연휴기간 무료운영,"14,00:00~24:00","15,00:00~24:00","16,00:00~24:00","17,00:00~24:00","18,00:00~24:00"
33,강원도,느치골제3,노외,강원도 춘천시 신북읍 천전리 산73-7(소양댐너치골제3주차장),37.94563,127.809156,춘천도시공사,033-240-1656,연휴기간 무료운영,"14,00:00~24:00","15,00:00~24:00","16,00:00~24:00","17,00:00~24:00","18,00:00~24:00"
34,강원도,효자동노외,노외,강원도 춘천시 효자동 151-1번지 일원,37.8718436,127.7341826,춘천도시공사,033-240-1656,연휴기간 무료운영,"14,00:00~24:00","15,00:00~24:00","16,00:00~24:00","17,00:00~24:00","18,00:00~24:00"
35,강원도,자라우저수지,노외,강원도 춘천시 송암동 142,37.8579414,127.6960778,춘천도시공사,033-240-1656,연휴기간 무료운영,"14,00:00~24:00","15,00:00~24:00","16,00:00~24:00","17,00:00~24:00","18,00:00~24:00"
36,강원도,싸이클경기장옆,노외,강원도 춘천시 삼천동 388-11,37.869733,127.706612,춘천도시공사,033-240-1656,연휴기간 무료운영,"14,00:00~24:00","15,00:00~24:00","16,00:00~24:00","17,00:00~24:00","18,00:00~24:00"
37,강원도,구 진로부지,노외,강원도 춘천시 효자동 490-1번지 일원,37.8747353,127.7335333,춘천도시공사,033-240-1656,연휴기간 무료운영,"14,00:00~24:00","15,00:00~24:00","16,00:00~24:00","17,00:00~24:00","18,00:00~24:00"
38,강원도,춘천역앞,노외,강원도 춘천시 근화동 199 일원(캠프페이지),37.8817726,127.7189455,춘천도시공사,033-240-1656,연휴기간 무료운영,"14,00:00~24:00","15,00:00~24:00","16,00:00~24:00","17,00:00~24:00","18,00:00~24:00"
39,강원도,11토지  주차장 1,노외,강원도 춘천시 퇴계동 1158,37.8644562,127.7261656,춘천도시공사,033-240-1656,연휴기간 무료운영,"14,00:00~24:00","15,00:00~24:00","16,00:00~24:00","17,00:00~24:00","18,00:00~24:00"
40,강원도,11토지  주차장 2,노외,강원도 춘천시 퇴계동 1186,37.8644562,127.7261656,춘천도시공사,033-240-1656,연휴기간 무료운영,"14,00:00~24:00","15,00:00~24:00","16,00:00~24:00","17,00:00~24:00","18,00:00~24:00"
41,강원도,11토지  주차장 3,노외,강원도 춘천시 퇴계동 1176,37.8644562,127.7261656,춘천도시공사,033-240-1656,연휴기간 무료운영,"14,00:00~24:00","15,00:00~24:00","16,00:00~24:00","17,00:00~24:00","18,00:00~24:00"
42,강원도,온의2지구 주차장 1,노외,강원도 춘천시 온의동 588-1,37.8631234,127.7161022,춘천도시공사,033-240-1656,연휴기간 무료운영,"14,00:00~24:00","15,00:00~24:00","16,00:00~24:00","17,00:00~24:00","18,00:00~24:00"
43,강원도,온의2지구 주차장 2,노외,강원도 춘천시 온의동 589-8(향토공예관),37.8631234,127.7161022,춘천도시공사,033-240-1656,연휴기간 무료운영,"14,00:00~24:00","15,00:00~24:00","16,00:00~24:00","17,00:00~24:00","18,00:00~24:00"
44,강원도,공지천노외,노외,강원도 춘천시 근화동 365-3(일원),37.8737607,127.7118877,춘천도시공사,033-240-1656,연휴기간 무료운영,"14,00:00~24:00","15,00:00~24:00","16,00:00~24:00","17,00:00~24:00","18,00:00~24:00"
45,강원도,요선 노외,노외,강원도 춘천시 소양로2가 116-22외(34필지),37.8841832,127.7267749,춘천도시공사,033-240-1656,연휴기간 무료운영,"14,00:00~24:00","15,00:00~24:00","16,00:00~24:00","17,00:00~24:00","18,00:00~24:00"
46,강원도,소양강,노외,강원도 춘천시 근화동 786-35 외(44필지),37.88988,127.7208521,춘천도시공사,033-240-1656,연휴기간 무료운영,"14,00:00~24:00","15,00:00~24:00","16,00:00~24:00","17,00:00~24:00","18,00:00~24:00"
47,강원도,공지천 주차장,노외,강원도 춘천시 근화동 785-10,37.875142,127.7126177,춘천도시공사,033-240-1656,연휴기간 무료운영,"14,00:00~24:00","15,00:00~24:00","16,00:00~24:00","17,00:00~24:00","18,00:00~24:00"
48,강원도,삼천동 공영주차장,노외,강원도 춘천시 삼천동 22-15,37.8712476,127.7085228,춘천도시공사,033-240-1656,연휴기간 무료운영,"14,00:00~24:00","15,00:00~24:00","16,00:00~24:00","17,00:00~24:00","18,00:00~24:00"
49,강원도,거두리 공영주차장,노외,강원도 춘천시 거두리 945-1 외3,37.8650494,127.803201,춘천도시공사,033-240-1656,연휴기간 무료운영,"14,00:00~24:00","15,00:00~24:00","16,00:00~24:00","17,00:00~24:00","18,00:00~24:00"
50,강원도,옥천지구 공영주차장,노외,강원도 춘천시 옥천동 14-165 외6필지,37.8824368,127.731364,춘천도시공사,033-240-1656,연휴기간 무료운영,"14,00:00~24:00","15,00:00~24:00","16,00:00~24:00","17,00:00~24:00","18,00:00~24:00"
51,강원도,철도 하부공간(남춘천역),노외,강원도 춘천시 퇴계동 621-3 외9필지,37.8634422,127.725074,춘천도시공사,033-240-1656,연휴기간 무료운영,"14,00:00~24:00","15,00:00~24:00","16,00:00~24:00","17,00:00~24:00","18,00:00~24:00"
52,강원도,철도 하부공간(정족고가),노외,강원도 춘천시 퇴계동 136-12 외6필지,37.8644562,127.7261656,춘천도시공사,033-240-1656,연휴기간 무료운영,"14,00:00~24:00","15,00:00~24:00","16,00:00~24:00","17,00:00~24:00","18,00:00~24:00"
53,강원도,대머리산(교동3지구),노외,강원도 춘천시 교동 113-321 외22필지,37.8797595,127.7372052,춘천도시공사,033-240-1656,연휴기간 무료운영,"14,00:00~24:00","15,00:00~24:00","16,00:00~24:00","17,00:00~24:00","18,00:00~24:00"
54,강원도,문막공영주차장,노외,강원도 원주시 문막읍 문막리 1044,37.30724569,127.8144012,강원도 원주시청,033-737-3543,,"14,00:00~24:00","15,00:00~24:00","16,00:00~24:00","17,00:00~24:00","18,00:00~24:00"
55,강원도,건등택지 노외주차장,노외,강원도 원주시 문막읍 건등리 1710-8,37.31154648,127.8188651,강원도 원주시청,033-737-3543,,"14,00:00~24:00","15,00:00~24:00","16,00:00~24:00","17,00:00~24:00","18,00:00~24:00"
56,강원도,소초면 유휴지주차장,노외,강원도 원주시 소초면 장양리 1006,37.42383247,127.9635833,강원도 원주시청,033-737-3543,,"14,00:00~24:00","15,00:00~24:00","16,00:00~24:00","17,00:00~24:00","18,00:00~24:00"
57,강원도,소초공영주차장,노외,강원도 원주시 소초면 장양리 782-1,37.4106685,127.955483,강원도 원주시청,033-737-3543,,"14,00:00~24:00","15,00:00~24:00","16,00:00~24:00","17,00:00~24:00","18,00:00~24:00"
58,강원도,흥업면 공영주차장,노외,강원도 원주시 흥업면 흥업리 584-1,37.30147055,127.9196773,강원도 원주시청,033-737-3543,,"14,00:00~24:00","15,00:00~24:00","16,00:00~24:00","17,00:00~24:00","18,00:00~24:00"
59,강원도,신림면 공영주차장,노외,강원도 원주시 신림면 신림리 537-2,37.2304095,128.0819459,강원도 원주시청,033-737-3543,,"14,00:00~24:00","15,00:00~24:00","16,00:00~24:00","17,00:00~24:00","18,00:00~24:00"
60,강원도,돌터5길 공영주차장,노외,강원도 원주시 우산동 229-9,37.3679504,127.9381117,강원도 원주시청,033-737-3543,,"14,00:00~24:00","15,00:00~24:00","16,00:00~24:00","17,00:00~24:00","18,00:00~24:00"
61,강원도,이화마을 주차장,노외,강원도 원주시 단계동 917,37.33990475,127.9329773,강원도 원주시청,033-737-3543,,"14,00:00~24:00","15,00:00~24:00","16,00:00~24:00","17,00:00~24:00","18,00:00~24:00"
62,강원도,원인동유휴지주차장,노외,강원도 원주시 원동 270-1,37.34503573,127.9456935,강원도 원주시청,033-737-3543,,"14,00:00~24:00","15,00:00~24:00","16,00:00~24:00","17,00:00~24:00","18,00:00~24:00"
63,강원도,단구동유휴지주차장,노외,강원도 원주시 단구동 596-5,37.33032502,127.9574988,강원도 원주시청,033-737-3543,,"14,00:00~24:00","15,00:00~24:00","16,00:00~24:00","17,00:00~24:00","18,00:00~24:00"
64,강원도,봉산동 간이주차장,노외,강원도 원주시 봉산동 1144-4,37.34582565,127.9589395,강원도 원주시청,033-737-3543,,"14,00:00~24:00","15,00:00~24:00","16,00:00~24:00","17,00:00~24:00","18,00:00~24:00"
65,강원도,관설동 유휴지주차장,노외,강원도 원주시 관설동 1452-4,37.31818923,127.9667277,강원도 원주시청,033-737-3543,,"14,00:00~24:00","15,00:00~24:00","16,00:00~24:00","17,00:00~24:00","18,00:00~24:00"
66,강원도,태장2동 공영주차장,노외,강원도 원주시 태장동 산56-2,37.3801043,127.9499385,강원도 원주시청,033-737-3543,,"14,00:00~24:00","15,00:00~24:00","16,00:00~24:00","17,00:00~24:00","18,00:00~24:00"
67,강원도,태장2동 간이주차장,노외,강원도 원주시 태장동 2682,37.38281081,127.9455953,강원도 원주시청,033-737-3543,,"14,00:00~24:00","15,00:00~24:00","16,00:00~24:00","17,00:00~24:00","18,00:00~24:00"
68,강원도,관설동 간이주차장,노외,강원도 원주시 관설동 1745-4,37.31884907,127.9620383,강원도 원주시청,033-737-3543,,"14,00:00~24:00","15,00:00~24:00","16,00:00~24:00","17,00:00~24:00","18,00:00~24:00"
69,강원도,서곡8리 공영주차장,노외,강원도 원주시 판부면 서곡리 2026-6,37.32047185,127.941461,강원도 원주시청,033-737-3543,,"14,00:00~24:00","15,00:00~24:00","16,00:00~24:00","17,00:00~24:00","18,00:00~24:00"
70,강원도,김윤기 가옥 근처 주차장1,노외,강원도 강릉시 노암동 302-7,37.7472512,128.9002964,강릉시청 교통과,033-640-5217,무료개방,"14,00:00~24:00","15,00:00~24:00","16,00:00~24:00","17,00:00~24:00","18,00:00~24:00"
71,강원도,김윤기 가옥 근처 주차장2,노외,강원도 강릉시 노암동 302-4,37.747556,128.902552,강릉시청 교통과,033-640-5217,무료개방,"14,00:00~24:00","15,00:00~24:00","16,00:00~24:00","17,00:00~24:00","18,00:00~24:00"
72,강원도,김윤기 가옥 근처 주차장3,노외,"강원도 강릉시 노암동 402-37, 402-36",37.7469208,128.9009653,강릉시청 교통과,033-640-5217,무료개방,"14,00:00~24:00","15,00:00~24:00","16,00:00~24:00","17,00:00~24:00","18,00:00~24:00"
73,강원도,노암동 시영주택주차장,노외,강원도 강릉시 노암동 324-67,37.7499446,128.8981391,강릉시청 교통과,033-640-5217,무료개방,"14,00:00~24:00","15,00:00~24:00","16,00:00~24:00","17,00:00~24:00","18,00:00~24:00"
74,강원도,시영주택입구 주차장,노외,강원도 강릉시 노암동 279-18,37.7500222,128.8977692,강릉시청 교통과,033-640-5217,무료개방,"14,00:00~24:00","15,00:00~24:00","16,00:00~24:00","17,00:00~24:00","18,00:00~24:00"
75,강원도,은마 연립주택 근처 주차장,노외,"강원도 강릉시 노암동 699-9, 699-14",37.7467688,128.8955112,강릉시청 교통과,033-640-5217,무료개방,"14,00:00~24:00","15,00:00~24:00","16,00:00~24:00","17,00:00~24:00","18,00:00~24:00"
76,강원도,정동진역 공영주차장,노외,강원도 강릉시 정동진리 259-1,37.6892845,129.0328378,강릉시청 교통과,033-640-5217,무료개방,"14,00:00~24:00","15,00:00~24:00","16,00:00~24:00","17,00:00~24:00","18,00:00~24:00"
77,강원도,바다부채길  주차장,노외,강원도 강릉시 심곡리 69-5,37.663799,129.045679,강릉시청 교통과,033-640-5217,무료개방,"14,00:00~24:00","15,00:00~24:00","16,00:00~24:00","17,00:00~24:00","18,00:00~24:00"
78,강원도,바다부채길 주차장,노외,강원도 강릉시 심곡리,37.663799,129.045679,강릉시청 교통과,033-640-5217,무료개방,"14,00:00~24:00","15,00:00~24:00","16,00:00~24:00","17,00:00~24:00","18,00:00~24:00"
79,강원도,7번국도 저탄장 주차장,노외,강원도 강릉시 강동면 정동진리 440-29,37.696535,129.025622,강릉시청 교통과,033-640-5217,무료개방,"14,00:00~24:00","15,00:00~24:00","16,00:00~24:00","17,00:00~24:00","18,00:00~24:00"
80,강원도,심곡 바다부채길 주차장,노외,강원도 강릉시 정동진리 50-33,37.682024,129.040685,강릉시청 교통과,033-640-5217,무료개방,"14,00:00~24:00","15,00:00~24:00","16,00:00~24:00","17,00:00~24:00","18,00:00~24:00"
81,강원도,심곡 바다부채길 주차장,노외,강원도 강릉시 정동진리 51-4,37.6809943,129.0394793,강릉시청 교통과,033-640-5217,무료개방,"14,00:00~24:00","15,00:00~24:00","16,00:00~24:00","17,00:00~24:00","18,00:00~24:00"
82,강원도,심곡 바다부채길 주차장,노외,강원도 강릉시 정동진리 51-22,37.680733,129.041837,강릉시청 교통과,033-640-5217,무료개방,"14,00:00~24:00","15,00:00~24:00","16,00:00~24:00","17,00:00~24:00","18,00:00~24:00"
83,강원도,심곡 바다부채길 주차장,노외,강원도 강릉시 정동진리 52-11,37.680116,129.042103,강릉시청 교통과,033-640-5217,무료개방,"14,00:00~24:00","15,00:00~24:00","16,00:00~24:00","17,00:00~24:00","18,00:00~24:00"
84,강원도,3.1 기념탑 주차장,노외,강원도 강릉시 저동 144-3외,37.791968,128.896171,강릉시청 교통과,033-640-5217,무료개방,"14,00:00~24:00","15,00:00~24:00","16,00:00~24:00","17,00:00~24:00","18,00:00~24:00"
85,강원도,전적비 주차장,노외,강원도 강릉시 안현동 94-145,37.8032844,128.9025131,강릉시청 교통과,033-640-5217,무료개방,"14,00:00~24:00","15,00:00~24:00","16,00:00~24:00","17,00:00~24:00","18,00:00~24:00"
86,강원도,경포 번영회 주차장,노외,강원도 강릉시 안현동 868-4,37.802065,128.901306,강릉시청 교통과,033-640-5217,무료개방,"14,00:00~24:00","15,00:00~24:00","16,00:00~24:00","17,00:00~24:00","18,00:00~24:00"
87,강원도,경포대광장 주차장(충혼탑),노외,강원도 강릉시 저동 126-1,37.795805,128.896858,강릉시청 교통과,033-640-5217,무료개방,"14,00:00~24:00","15,00:00~24:00","16,00:00~24:00","17,00:00~24:00","18,00:00~24:00"
88,강원도,선교장 노외주차장,노외,강원도 강릉시 운정동 472-18,37.784995,128.884631,강릉시청 교통과,033-640-5217,무료개방,"14,00:00~24:00","15,00:00~24:00","16,00:00~24:00","17,00:00~24:00","18,00:00~24:00"
89,강원도,오죽헌박물관 뒷편 주차장,노외,강원도 강릉시 죽헌동 179-1,37.778914,128.876048,강릉시청 교통과,033-640-5217,무료개방,"14,00:00~24:00","15,00:00~24:00","16,00:00~24:00","17,00:00~24:00","18,00:00~24:00"
90,강원도,종합운동장 주차장,노외,강원도 강릉시 교동 2-10,37.773225,128.895134,강릉시청 교통과,033-640-5217,무료개방,"14,00:00~24:00","15,00:00~24:00","16,00:00~24:00","17,00:00~24:00","18,00:00~24:00"
91,강원도,강릉 식자재마트 근처 주차장,노외,강원도 강릉시 교동 1899-3,37.763004,128.873445,강릉시청 교통과,033-640-5217,무료개방,"14,00:00~24:00","15,00:00~24:00","16,00:00~24:00","17,00:00~24:00","18,00:00~24:00"
92,강원도,강릉실내종합체육관 주차장,노외,강원도 강릉시 교동 2-21,37.772128,128.893627,강릉시청 교통과,033-640-5217,무료개방,"14,00:00~24:00","15,00:00~24:00","16,00:00~24:00","17,00:00~24:00","18,00:00~24:00"
93,강원도,강릉인라인스케이팅장 주차장,노외,강원도 강릉시 교동 377,37.772801,128.893726,강릉시청 교통과,033-640-5217,무료개방,"14,00:00~24:00","15,00:00~24:00","16,00:00~24:00","17,00:00~24:00","18,00:00~24:00"
94,강원도,관동교회 근처주차장,노외,강원도 강릉시 교동 987-7,37.756005,128.885921,강릉시청 교통과,033-640-5217,무료개방,"14,00:00~24:00","15,00:00~24:00","16,00:00~24:00","17,00:00~24:00","18,00:00~24:00"
95,강원도,관동중 맞은편,노외,강원도 강릉시 교동 1740-3,37.755724,128.881944,강릉시청 교통과,033-640-5217,무료개방,"14,00:00~24:00","15,00:00~24:00","16,00:00~24:00","17,00:00~24:00","18,00:00~24:00"
96,강원도,관동중 앞,노외,강원도 강릉시 교동 1429-6,37.7561135,128.8782814,강릉시청 교통과,033-640-5217,무료개방,"14,00:00~24:00","15,00:00~24:00","16,00:00~24:00","17,00:00~24:00","18,00:00~24:00"
97,강원도,교동택지 공영 주차장,노외,강원도 강릉시 교동 1878-1,37.766149,128.877202,강릉시청 교통과,033-640-5217,무료개방,"14,00:00~24:00","15,00:00~24:00","16,00:00~24:00","17,00:00~24:00","18,00:00~24:00"
98,강원도,구 터미널주차장,노외,강원도 강릉시 교동 156-35,37.760828,128.897605,강릉시청 교통과,033-640-5217,무료개방,"14,00:00~24:00","15,00:00~24:00","16,00:00~24:00","17,00:00~24:00","18,00:00~24:00"
99,강원도,기쁨교회부지 컬링경기장,노외,강원도 강릉시 교동 622,37.775128,128.891157,강릉시청 교통과,033-640-5217,무료개방,"14,00:00~24:00","15,00:00~24:00","16,00:00~24:00","17,00:00~24:00","18,00:00~24:00"
100,강원도,임당사거리 근처 주차장,노외,강원도 강릉시 교동 156-35외 3필지,37.760828,128.897605,강릉시청 교통과,033-640-5217,무료개방,"14,00:00~24:00","15,00:00~24:00","16,00:00~24:00","17,00:00~24:00","18,00:00~24:00"
101,강원도,코레일네트웍스㈜강릉역주차장,노외,강원도 강릉시 교동 118,37.763604,128.898937,강릉시청 교통과,033-640-5217,무료개방,"14,00:00~24:00","15,00:00~24:00","16,00:00~24:00","17,00:00~24:00","18,00:00~24:00"
102,강원도,내곡교사거리 근처 주차장,노외,강원도 강릉시 내곡동 51-15,37.746199,128.886201,강릉시청 교통과,033-640-5217,무료개방,"14,00:00~24:00","15,00:00~24:00","16,00:00~24:00","17,00:00~24:00","18,00:00~24:00"
103,강원도,내곡동 현대A 앞 둔치주차장,노외,강원도 강릉시 내곡동 31,37.748273,128.891116,강릉시청 교통과,033-640-5217,무료개방,"14,00:00~24:00","15,00:00~24:00","16,00:00~24:00","17,00:00~24:00","18,00:00~24:00"
104,강원도,도시계획도로 임시 주차장1,노외,강원도 강릉시 내곡동 67-3,37.746424,128.8869094,강릉시청 교통과,033-640-5217,무료개방,"14,00:00~24:00","15,00:00~24:00","16,00:00~24:00","17,00:00~24:00","18,00:00~24:00"
105,강원도,도시계획도로 임시 주차장2,노외,강원도 강릉시 내곡동 51-48,37.746447,128.888988,강릉시청 교통과,033-640-5217,무료개방,"14,00:00~24:00","15,00:00~24:00","16,00:00~24:00","17,00:00~24:00","18,00:00~24:00"
106,강원도,무지개아파트 근처 주차장,노외,강원도 강릉시 내곡동 71-3,37.746259,128.890603,강릉시청 교통과,033-640-5217,무료개방,"14,00:00~24:00","15,00:00~24:00","16,00:00~24:00","17,00:00~24:00","18,00:00~24:00"
107,강원도,폴리텍III대학 입구,노외,강원도 강릉시 내곡동 산 104,37.737071,128.888773,강릉시청 교통과,033-640-5217,무료개방,"14,00:00~24:00","15,00:00~24:00","16,00:00~24:00","17,00:00~24:00","18,00:00~24:00"
108,강원도,사천항 공영주차장,노외,강원도 강릉시 사천면 사천진리 86-141,37.834811,128.874952,강릉시청 교통과,033-640-5217,무료개방,"14,00:00~24:00","15,00:00~24:00","16,00:00~24:00","17,00:00~24:00","18,00:00~24:00"
109,강원도,사천면 공영주차장,노외,강원도 강릉시 사천진리 86-185 체육공원 뒤편,37.836703,128.873317,강릉시청 교통과,033-640-5217,무료개방,"14,00:00~24:00","15,00:00~24:00","16,00:00~24:00","17,00:00~24:00","18,00:00~24:00"
110,강원도,사천면 공영주차장,노외,강원도 강릉시 사천진리 86-79 보건지소 앞,37.836928,128.874713,강릉시청 교통과,033-640-5217,무료개방,"14,00:00~24:00","15,00:00~24:00","16,00:00~24:00","17,00:00~24:00","18,00:00~24:00"
111,강원도,사천 동해종합마트 근처,노외,강원도 강릉시 사천진리 29-12 외 1필지,37.8386250 ,128.4747340 ,강릉시청 교통과,033-640-5217,무료개방,"14,00:00~24:00","15,00:00~24:00","16,00:00~24:00","17,00:00~24:00","18,00:00~24:00"
112,강원도,사천진 보건진료소 근처주차장,노외,강원도 강릉시 사천진리 86-76 외 5필지,37.8372130 ,128.8747330 ,강릉시청 교통과,033-640-5217,무료개방,"14,00:00~24:00","15,00:00~24:00","16,00:00~24:00","17,00:00~24:00","18,00:00~24:00"
113,강원도,사천진리 해변길 주차장,노외,강원도 강릉시 사천면 사천진리 2-93,37.8360490 ,128.8788250 ,강릉시청 교통과,033-640-5217,무료개방,"14,00:00~24:00","15,00:00~24:00","16,00:00~24:00","17,00:00~24:00","18,00:00~24:00"
114,강원도,남항진항 해수욕장 주차장,노외,강원도 강릉시 남항진동 1-1,37.7655510 ,128.9529870 ,강릉시청 교통과,033-640-5217,무료개방,"14,00:00~24:00","15,00:00~24:00","16,00:00~24:00","17,00:00~24:00","18,00:00~24:00"
115,강원도,6주공오거리 근처 주차장1,노외,강원도 강릉시 입암동 94-5,37.7616320 ,128.9180580 ,강릉시청 교통과,033-640-5217,무료개방,"14,00:00~24:00","15,00:00~24:00","16,00:00~24:00","17,00:00~24:00","18,00:00~24:00"
116,강원도,6주공오거리 근처 주차장2,노외,강원도 강릉시 입암동 85-3,37.7616730 ,128.9176460 ,강릉시청 교통과,033-640-5217,무료개방,"14,00:00~24:00","15,00:00~24:00","16,00:00~24:00","17,00:00~24:00","18,00:00~24:00"
117,강원도,강릉중학교 근처 주택가 주차장,노외,강원도 강릉시 입암동 656-23,37.7526820 ,128.9075040 ,강릉시청 교통과,033-640-5217,무료개방,"14,00:00~24:00","15,00:00~24:00","16,00:00~24:00","17,00:00~24:00","18,00:00~24:00"
118,강원도,구파출소 옆,노외,강원도 강릉시 입암동 679-30,37.7559990 ,128.9077070 ,강릉시청 교통과,033-640-5217,무료개방,"14,00:00~24:00","15,00:00~24:00","16,00:00~24:00","17,00:00~24:00","18,00:00~24:00"
119,강원도,성덕동 주민센터 근처주차장,노외,"강원도 강릉시 입암동 597-5, 599-6, 598",37.7632060 ,128.9141040 ,강릉시청 교통과,033-640-5217,무료개방,"14,00:00~24:00","15,00:00~24:00","16,00:00~24:00","17,00:00~24:00","18,00:00~24:00"
120,강원도,성산교회 앞,노외,강원도 강릉시 성산면 구산리 243-1,37.7162870 ,128.8310790 ,강릉시청 교통과,033-640-5217,무료개방,"14,00:00~24:00","15,00:00~24:00","16,00:00~24:00","17,00:00~24:00","18,00:00~24:00"
121,강원도,소라B단지아파트 인근 주차장,노외,강원도 강릉시 송정동 212,37.7764740 ,128.9321760 ,강릉시청 교통과,033-640-5217,무료개방,"14,00:00~24:00","15,00:00~24:00","16,00:00~24:00","17,00:00~24:00","18,00:00~24:00"
122,강원도,송정풋살경기장,노외,강원도 강릉시 견소동 산2,37.7774420 ,128.9401630 ,강릉시청 교통과,033-640-5217,무료개방,"14,00:00~24:00","15,00:00~24:00","16,00:00~24:00","17,00:00~24:00","18,00:00~24:00"
123,강원도,송정해변 주차장,노외,강원도 강릉시 송정동 산 60-3외4,37.7797450 ,128.9365810 ,강릉시청 교통과,033-640-5217,무료개방,"14,00:00~24:00","15,00:00~24:00","16,00:00~24:00","17,00:00~24:00","18,00:00~24:00"
124,강원도,안목사거리 근처 주차장,노외,강원도 강릉시 견소동 268-29외1,37.7734260 ,128.9454320 ,강릉시청 교통과,033-640-5217,무료개방,"14,00:00~24:00","15,00:00~24:00","16,00:00~24:00","17,00:00~24:00","18,00:00~24:00"
125,강원도,동덕 주차장,노외,강원도 강릉시 연곡면 동덕리143-3,37.8580840 ,128.8530770 ,강릉시청 교통과,033-640-5217,무료개방,"14,00:00~24:00","15,00:00~24:00","16,00:00~24:00","17,00:00~24:00","18,00:00~24:00"
126,강원도,연곡면 주민센터앞 게이트볼장 부지,노외,강원도 강릉시 연곡면 방내리 31-1,37.8600387 ,128.8351530 ,강릉시청 교통과,033-640-5217,무료개방,"14,00:00~24:00","15,00:00~24:00","16,00:00~24:00","17,00:00~24:00","18,00:00~24:00"
127,강원도,연곡2단지부영 근처 주차장,노외,강원도 강릉시 연곡면 영진리 357-125,37.8704134 ,128.8410069 ,강릉시청 교통과,033-640-5217,무료개방,"14,00:00~24:00","15,00:00~24:00","16,00:00~24:00","17,00:00~24:00","18,00:00~24:00"
128,강원도,금진항 주차장,노외,강원도 강릉시 옥계면 금진리112,37.6538521 ,129.0481084 ,강릉시청 교통과,033-640-5217,무료개방,"14,00:00~24:00","15,00:00~24:00","16,00:00~24:00","17,00:00~24:00","18,00:00~24:00"
129,강원도,옥계성당 근처 주차장,노외,강원도 강릉시 옥계면 현내리 339-5,37.6113050 ,129.0351505 ,강릉시청 교통과,033-640-5217,무료개방,"14,00:00~24:00","15,00:00~24:00","16,00:00~24:00","17,00:00~24:00","18,00:00~24:00"
130,강원도,고수부지공영주차장(새벽시장),노외,강원도 강릉시 옥천동 25-2번지,37.7561218 ,128.9025139 ,강릉시청 교통과,033-640-5217,무료개방,"14,00:00~24:00","15,00:00~24:00","16,00:00~24:00","17,00:00~24:00","18,00:00~24:00"
131,강원도,옥천동주차장(구여성회관),노외,강원도 강릉시 옥천동 224번지,37.7595623 ,128.8995199 ,강릉시청 교통과,033-640-5217,연휴(15 ~ 18일) 무료개방,"14,10:00~18:00","15,00:00~24:00","16,00:00~24:00","17,00:00~24:00","18,00:00~24:00"
132,강원도,도시계획도로 임시 주차장3,노외,강원도 강릉시 주문진읍 교항리 292,37.8875558 ,128.8210309 ,강릉시청 교통과,033-640-5217,무료개방,"14,00:00~24:00","15,00:00~24:00","16,00:00~24:00","17,00:00~24:00","18,00:00~24:00"
133,강원도,소돌 소원(아들)바위 주차장,노외,강원도 강릉시 주문진읍 주문리 791-42,37.9052938 ,128.8280809 ,강릉시청 교통과,033-640-5217,무료개방,"14,00:00~24:00","15,00:00~24:00","16,00:00~24:00","17,00:00~24:00","18,00:00~24:00"
134,강원도,신리천 둔치 주차장,노외,강원도 강릉시 주문진읍 교항리 1252-14,37.8849467 ,128.8257572 ,강릉시청 교통과,033-640-5217,무료개방,"14,00:00~24:00","15,00:00~24:00","16,00:00~24:00","17,00:00~24:00","18,00:00~24:00"
135,강원도,주문진 터미널 오거리주차장,노외,강원도 강릉시 주문진읍 교항리 328-2,37.8843088 ,128.8216439 ,강릉시청 교통과,033-640-5217,무료개방,"14,00:00~24:00","15,00:00~24:00","16,00:00~24:00","17,00:00~24:00","18,00:00~24:00"
136,강원도,주문7리 마을회관 근처주차장,노외,강원도 강릉시 주문진읍 주문리 122-13,37.8985387 ,128.8316935 ,강릉시청 교통과,033-640-5217,무료개방,"14,00:00~24:00","15,00:00~24:00","16,00:00~24:00","17,00:00~24:00","18,00:00~24:00"
137,강원도,주문진 주차장,노외,강원도 강릉시 주문진읍 교항리 130-11,37.8864382 ,128.8232672 ,강릉시청 교통과,033-640-5217,무료개방,"14,00:00~24:00","15,00:00~24:00","16,00:00~24:00","17,00:00~24:00","18,00:00~24:00"
138,강원도,주문진읍 피난촌 주차장,노외,강원도 강릉시 주문진읍 교항리 259,37.8885739 ,128.8216755 ,강릉시청 교통과,033-640-5217,무료개방,"14,00:00~24:00","15,00:00~24:00","16,00:00~24:00","17,00:00~24:00","18,00:00~24:00"
139,강원도,주문진해수욕장 주차장,노외,강원도 강릉시 주문진읍 향호리 8-17,37.9105944 ,128.8161098 ,강릉시청 교통과,033-640-5217,무료개방,"14,00:00~24:00","15,00:00~24:00","16,00:00~24:00","17,00:00~24:00","18,00:00~24:00"
140,강원도,고수부지 공영주차장,노외,강원도 강릉시 성남동 85-2,37.7519474 ,128.8968652 ,강릉시청 교통과,033-640-5217,무료개방,"14,00:00~24:00","15,00:00~24:00","16,00:00~24:00","17,00:00~24:00","18,00:00~24:00"
141,강원도,구)기상청주차장,노외,강원도 강릉시 용강동 63-2,37.7517263 ,128.8888487 ,강릉시청 교통과,033-640-5217,무료개방,"14,00:00~24:00","15,00:00~24:00","16,00:00~24:00","17,00:00~24:00","18,00:00~24:00"
142,강원도,구)산림청주차장,노외,강원도 강릉시 용강동 46-2,37.7533114 ,128.8872642 ,강릉시청 교통과,033-640-5217,무료개방,"14,00:00~24:00","15,00:00~24:00","16,00:00~24:00","17,00:00~24:00","18,00:00~24:00"
143,강원도,남대천둔치 공영주차장강릉교아래시립의료원앞,노외,강원도 강릉시 남문동 67,37.7486957 ,128.8883153 ,강릉시청 교통과,033-640-5217,무료개방,"14,00:00~24:00","15,00:00~24:00","16,00:00~24:00","17,00:00~24:00","18,00:00~24:00"
144,강원도,명주동주차장,노외,강원도 강릉시 명주동 14외1,37.7508648 ,128.8904111 ,강릉시청 교통과,033-640-5217,무료개방,"14,00:00~24:00","15,00:00~24:00","16,00:00~24:00","17,00:00~24:00","18,00:00~24:00"
145,강원도,상공회의소주차장,노외,강원도 강릉시 임당동 146외3,37.7537561 ,128.8932434 ,강릉시청 교통과,033-640-5217,무료개방,"14,00:00~24:00","15,00:00~24:00","16,00:00~24:00","17,00:00~24:00","18,00:00~24:00"
146,강원도,성내동 광장 주차장,노외,강원도 강릉시 성남동 114-3외 3,37.7514173 ,128.8926419 ,강릉시청 교통과,033-640-5217,연휴(15 ~ 18일) 무료개방,"14,08:00~23:00","15,00:00~24:00","16,00:00~24:00","17,00:00~24:00","18,00:00~24:00"
147,강원도,손병욱 베이커리 근처 주차장,노외,강원도 강릉시 임당동 48-3,37.7550620 ,128.8912083 ,강릉시청 교통과,033-640-5217,무료개방,"14,00:00~24:00","15,00:00~24:00","16,00:00~24:00","17,00:00~24:00","18,00:00~24:00"
148,강원도,중앙동주민센터주차장,노외,강원도 강릉시 임당동 37,37.7559225 ,128.8919165 ,강릉시청 교통과,033-640-5217,무료개방,"14,00:00~24:00","15,00:00~24:00","16,00:00~24:00","17,00:00~24:00","18,00:00~24:00"
149,강원도,경포호수변 공영주차장,노외,강원도 강릉시 강문동 263,37.7986289 ,128.9088299 ,강릉시청 교통과,033-640-5216,무료개방,"14,00:00~24:00","15,00:00~24:00","16,00:00~24:00","17,00:00~24:00","18,00:00~24:00"
150,강원도,강문 노외공영주차장,노외,강원도 강릉시 강문동 182-1,37.7954903 ,128.9157312 ,강릉시청 교통과,033-640-5217,무료개방,"14,00:00~24:00","15,00:00~24:00","16,00:00~24:00","17,00:00~24:00","18,00:00~24:00"
151,강원도,구포남시장주차장,노외,"강원도 강릉시 포남동 1153, 1153-1",37.7647417 ,128.9040569 ,강릉시청 교통과,033-640-5217,무료개방,"14,00:00~24:00","15,00:00~24:00","16,00:00~24:00","17,00:00~24:00","18,00:00~24:00"
152,강원도,원규앤노블래스뒤,노외,강원도 강릉시 포남동 1278-17,37.7692473 ,128.9159765 ,강릉시청 교통과,033-640-5217,무료개방,"14,00:00~24:00","15,00:00~24:00","16,00:00~24:00","17,00:00~24:00","18,00:00~24:00"
153,강원도,[구]동부지방산림청부지,노외,강원도 강릉시 포남1동 1151-6,37.7659781 ,128.9059027 ,강릉시청 교통과,033-640-5217,무료개방,"14,00:00~24:00","15,00:00~24:00","16,00:00~24:00","17,00:00~24:00","18,00:00~24:00"
154,강원도,포남동강원여객부지주차장,노외,"강원도 강릉시 포남동 1278-137, 1286-1",37.7669034 ,128.9105698 ,강릉시청 교통과,033-640-5217,무료개방,"14,00:00~24:00","15,00:00~24:00","16,00:00~24:00","17,00:00~24:00","18,00:00~24:00"
155,강원도,홍제동둔치주차장 고가도로아래⇔홍제내곡교 밑,노외,강원도 강릉시 홍제동 946-1,37.7453840 ,128.8606268 ,강릉시청 교통과,033-640-5217,무료개방,"14,00:00~24:00","15,00:00~24:00","16,00:00~24:00","17,00:00~24:00","18,00:00~24:00"
156,강원도,(구) 문화원 주차장,노외,강원도 강릉시 홍제동 15-3,37.7546638 ,128.8878614 ,강릉시청 교통과,033-640-5217,무료개방,"14,00:00~24:00","15,00:00~24:00","16,00:00~24:00","17,00:00~24:00","18,00:00~24:00"
157,강원도,갈바리병원옆,노외,강원도 강릉시 홍제동 2-1외4필지,37.7561653 ,128.8878102 ,강릉시청 교통과,033-640-5217,무료개방,"14,00:00~24:00","15,00:00~24:00","16,00:00~24:00","17,00:00~24:00","18,00:00~24:00"
158,강원도,관광개발공사옆주차장,노외,강원도 강릉시 홍제동 252-2,37.7539411 ,128.8757420 ,강릉시청 교통과,033-640-5217,무료개방,"14,00:00~24:00","15,00:00~24:00","16,00:00~24:00","17,00:00~24:00","18,00:00~24:00"
159,강원도,구 농진청부지,노외,강원도 강릉시 홍제동 156번지,37.7530817 ,128.8804311 ,강릉시청 교통과,033-640-5217,무료개방,"14,00:00~24:00","15,00:00~24:00","16,00:00~24:00","17,00:00~24:00","18,00:00~24:00"
160,강원도,구 중앙초교 담장옆,노외,강원도 강릉시 홍제동 66-1,37.7513984 ,128.8850137 ,강릉시청 교통과,033-640-5217,무료개방,"14,00:00~24:00","15,00:00~24:00","16,00:00~24:00","17,00:00~24:00","18,00:00~24:00"
161,강원도,구 도로관리사업소,노외,강원도 강릉시 홍제동 101,37.7483537 ,128.8808424 ,강릉시청 교통과,033-640-5217,무료개방,"14,00:00~24:00","15,00:00~24:00","16,00:00~24:00","17,00:00~24:00","18,00:00~24:00"
162,강원도,노인회관 앞,노외,강원도 강릉시 홍제동 77-5외1,37.7503747 ,128.8823904 ,강릉시청 교통과,033-640-5217,무료개방,"14,00:00~24:00","15,00:00~24:00","16,00:00~24:00","17,00:00~24:00","18,00:00~24:00"
163,강원도,동사무소 건너편,노외,강원도 강릉시 홍제동 97-4외1,37.7476456 ,128.8806956 ,강릉시청 교통과,033-640-5217,무료개방,"14,00:00~24:00","15,00:00~24:00","16,00:00~24:00","17,00:00~24:00","18,00:00~24:00"
164,강원도,홍제동소주차장,노외,강원도 강릉시 홍제동 26-8,37.7545966,128.8860302,강릉시청 교통과,033-640-5217,무료개방,"14,00:00~24:00","15,00:00~24:00","16,00:00~24:00","17,00:00~24:00","18,00:00~24:00"
165,강원도,홍제동소주차장,노외,강원도 강릉시 홍제동 179-15,37.7538904,128.8846826,강릉시청 교통과,033-640-5217,무료개방,"14,00:00~24:00","15,00:00~24:00","16,00:00~24:00","17,00:00~24:00","18,00:00~24:00"
166,강원도,홍제동소주차장,노외,강원도 강릉시 홍제동 201-1,37.7552517,128.8839873,강릉시청 교통과,033-640-5217,무료개방,"14,00:00~24:00","15,00:00~24:00","16,00:00~24:00","17,00:00~24:00","18,00:00~24:00"
167,강원도,홍제동소주차장,노외,강원도 강릉시 홍제동 211,37.7554172,128.8846226,강릉시청 교통과,033-640-5217,무료개방,"14,00:00~24:00","15,00:00~24:00","16,00:00~24:00","17,00:00~24:00","18,00:00~24:00"
168,강원도,홍제동소주차장,노외,강원도 강릉시 홍제동 209-4,37.7557684,128.8844089,강릉시청 교통과,033-640-5217,무료개방,"14,00:00~24:00","15,00:00~24:00","16,00:00~24:00","17,00:00~24:00","18,00:00~24:00"
169,강원도,홍제동소주차장,노외,강원도 강릉시 홍제동 207-10,37.7551651,128.8856659,강릉시청 교통과,033-640-5217,무료개방,"14,00:00~24:00","15,00:00~24:00","16,00:00~24:00","17,00:00~24:00","18,00:00~24:00"
170,강원도,홍제동소주차장,노외,강원도 강릉시 홍제동 58-7,37.7510158,128.8861655,강릉시청 교통과,033-640-5217,무료개방,"14,00:00~24:00","15,00:00~24:00","16,00:00~24:00","17,00:00~24:00","18,00:00~24:00"
171,강원도,홍제동소주차장,노외,강원도 강릉시 홍제동 215-9,37.7558917,128.8840653,강릉시청 교통과,033-640-5217,무료개방,"14,00:00~24:00","15,00:00~24:00","16,00:00~24:00","17,00:00~24:00","18,00:00~24:00"
172,강원도,kbs부지 부차장,노외,강원도 강릉시 유천동 754,37.7671165,128.852722,강릉시청 교통과,033-640-5217,무료개방,"14,00:00~24:00","15,00:00~24:00","16,00:00~24:00","17,00:00~24:00","18,00:00~24:00"
173,강원도,중앙시장 제1주차장,노외,강원도 강릉시 성남동 208-24,37.7509409,128.89525,강릉시청 교통과,033-640-5217,무료개방,"14,00:00~24:00","15,00:00~24:00","16,00:00~24:00","17,00:00~24:00","18,00:00~24:00"
174,강원도,공영터미널,노외,강원도 동해시 동해대로 5443,37.52769153,129.1040465,동해시시설관리공단,033-539-3800,"14일 유료, 연휴기간 무료운영","14,09:00~18:00","15,09:00~18:00","16,09:00~18:00","17,09:00~18:00","18,09:00~18:00"
175,강원도,시청편의점,노상,강원도 동해시 천곡동 1090-8,37.52486801,129.1130215,동해시시설관리공단,033-539-3800,"14일 유료, 연휴기간 무료운영","14,09:00~18:00","15,09:00~18:00","16,09:00~18:00","17,09:00~18:00","18,09:00~18:00"
176,강원도,금강,노상,강원도 동해시 천곡동 1090-3,37.52516966,129.1087383,동해시시설관리공단,033-539-3800,"14일 유료, 연휴기간 무료운영","14,09:00~18:00","15,09:00~18:00","16,09:00~18:00","17,09:00~18:00","18,09:00~18:00"
177,강원도,축협,노상,강원도 동해시 천곡동 1090-3,37.52516966,129.1087383,동해시시설관리공단,033-539-3800,"14일 유료, 연휴기간 무료운영","14,09:00~18:00","15,09:00~18:00","16,09:00~18:00","17,09:00~18:00","18,09:00~18:00"
178,강원도,신한은행,노상,강원도 동해시 천곡동 1090-19,37.52050552,129.1150834,동해시시설관리공단,033-539-3800,"14일 유료, 연휴기간 무료운영","14,09:00~18:00","15,09:00~18:00","16,09:00~18:00","17,09:00~18:00","18,09:00~18:00"
179,강원도,기업은행,노상,강원도 동해시 천곡동 1090-19,37.52050552,129.1150834,동해시시설관리공단,033-539-3800,"14일 유료, 연휴기간 무료운영","14,09:00~18:00","15,09:00~18:00","16,09:00~18:00","17,09:00~18:00","18,09:00~18:00"
180,강원도,대학로약국,노상,강원도 동해시 천곡동 1092,37.52219597,129.1135474,동해시시설관리공단,033-539-3800,"14일 유료, 연휴기간 무료운영","14,09:00~18:00","15,09:00~18:00","16,09:00~18:00","17,09:00~18:00","18,09:00~18:00"
181,강원도,영동약국,노상,강원도 동해시 천곡동 1092,37.52219597,129.1135474,동해시시설관리공단,033-539-3800,"14일 유료, 연휴기간 무료운영","14,09:00~18:00","15,09:00~18:00","16,09:00~18:00","17,09:00~18:00","18,09:00~18:00"
182,강원도,문화공연장,노상,강원도 동해시 천곡동 1091,37.52112928,129.1120043,동해시시설관리공단,033-539-3800,"14일 유료, 연휴기간 무료운영","14,09:00~18:00","15,09:00~18:00","16,09:00~18:00","17,09:00~18:00","18,09:00~18:00"
183,강원도,문화공연장2,노상,강원도 동해시 천곡동 1091,37.52112928,129.1120043,동해시시설관리공단,033-539-3800,"14일 유료, 연휴기간 무료운영","14,09:00~18:00","15,09:00~18:00","16,09:00~18:00","17,09:00~18:00","18,09:00~18:00"
184,강원도,센트로빌1,노상,강원도 동해시 천곡동 1091,37.52112928,129.1120043,동해시시설관리공단,033-539-3800,"14일 유료, 연휴기간 무료운영","14,09:00~18:00","15,09:00~18:00","16,09:00~18:00","17,09:00~18:00","18,09:00~18:00"
185,강원도,센트로빌2,노상,강원도 동해시 천곡동 1091,37.52112928,129.1120043,동해시시설관리공단,033-539-3800,"14일 유료, 연휴기간 무료운영","14,09:00~18:00","15,09:00~18:00","16,09:00~18:00","17,09:00~18:00","18,09:00~18:00"
186,강원도,국민은행,노상,강원도 동해시 천곡동 1090-19,37.52050552,129.1150834,동해시시설관리공단,033-539-3800,"14일 유료, 연휴기간 무료운영","14,09:00~18:00","15,09:00~18:00","16,09:00~18:00","17,09:00~18:00","18,09:00~18:00"
187,강원도,이주민상가,노상,강원도 동해시 천곡동 1090-19,37.52050552,129.1150834,동해시시설관리공단,033-539-3800,"14일 유료, 연휴기간 무료운영","14,09:00~18:00","15,09:00~18:00","16,09:00~18:00","17,09:00~18:00","18,09:00~18:00"
188,강원도,뱅뱅,노상,강원도 동해시 천곡동 1090-18,37.5230963,129.1155293,동해시시설관리공단,033-539-3800,"14일 유료, 연휴기간 무료운영","14,09:00~18:00","15,09:00~18:00","16,09:00~18:00","17,09:00~18:00","18,09:00~18:00"
189,강원도,튼튼소아과,노상,강원도 동해시 천곡동 1090-18,37.5230963,129.1155293,동해시시설관리공단,033-539-3800,"14일 유료, 연휴기간 무료운영","14,09:00~18:00","15,09:00~18:00","16,09:00~18:00","17,09:00~18:00","18,09:00~18:00"
190,강원도,동사무소,노상,강원도 동해시 천곡동 1090-18,37.5230963,129.1155293,동해시시설관리공단,033-539-3800,"14일 유료, 연휴기간 무료운영","14,09:00~18:00","15,09:00~18:00","16,09:00~18:00","17,09:00~18:00","18,09:00~18:00"
191,강원도,동사무소2,노상,강원도 동해시 천곡동 1090-18,37.5230963,129.1155293,동해시시설관리공단,033-539-3800,"14일 유료, 연휴기간 무료운영","14,09:00~18:00","15,09:00~18:00","16,09:00~18:00","17,09:00~18:00","18,09:00~18:00"
192,강원도,보건소,노상,강원도 동해시 천곡동 1095,37.52216722,129.1175404,동해시시설관리공단,033-539-3800,"14일 유료, 연휴기간 무료운영","14,09:00~18:00","15,09:00~18:00","16,09:00~18:00","17,09:00~18:00","18,09:00~18:00"
193,강원도,엘지전자,노상,강원도 동해시 천곡동 1090-19,37.52050552,129.1150834,동해시시설관리공단,033-539-3800,"14일 유료, 연휴기간 무료운영","14,09:00~18:00","15,09:00~18:00","16,09:00~18:00","17,09:00~18:00","18,09:00~18:00"
194,강원도,한마음병원,노상,강원도 동해시 천곡동 1090-19,37.52050552,129.1150834,동해시시설관리공단,033-539-3800,"14일 유료, 연휴기간 무료운영","14,09:00~18:00","15,09:00~18:00","16,09:00~18:00","17,09:00~18:00","18,09:00~18:00"
195,강원도,북평 강변,노상,강원도 동해시 북평동 4-1,37.48359921,129.1264176,동해시시설관리공단,033-539-3800,"14일 유료, 연휴기간 무료운영","14,09:00~18:00","15,09:00~18:00","16,09:00~18:00","17,09:00~18:00","18,09:00~18:00"
196,강원도,북평 도로,노상,강원도 동해시 북평동 4-1,37.48359921,129.1264176,동해시시설관리공단,033-539-3800,"14일 유료, 연휴기간 무료운영","14,09:00~18:00","15,09:00~18:00","16,09:00~18:00","17,09:00~18:00","18,09:00~18:00"
197,강원도,북평 도로안,노상,강원도 동해시 북평동 4-1,37.48359921,129.1264176,동해시시설관리공단,033-539-3800,"14일 유료, 연휴기간 무료운영","14,09:00~18:00","15,09:00~18:00","16,09:00~18:00","17,09:00~18:00","18,09:00~18:00"
198,강원도,무릉계곡 입구 주차장,부설,강원도 동해시 삼화동 856-12,37.46377217,129.0219191,동해시시설관리공단,033-539-3700,"14,17일 유료운영","14,09:00~18:00","15,09:00~18:00","16,09:00~18:00","17,09:00~18:00","18,09:00~18:00"
199,강원도,천곡천연동굴 주차장,부설,강원도 동해시 천곡동 동굴로 50,37.51752144,129.1104801,동해시시설관리공단,033-539-3630,연휴기간 유료운영,"14,09:00~18:00","15,09:00~18:00","16,09:00~18:00","17,09:00~18:00","18,09:00~18:00"
200,강원도,"제1공영 주차장(태백역광장, 황연동사무소)",노외,강원도 태백시 황지동 270-33,37.1765533,128.9841294,강원도 태백시청,033-550-2105,14일 유료운영,"14,00:00~24:00","15,00:00~24:00","16,00:00~24:00","17,00:00~24:00","18,00:00~24:00"
201,강원도,"제2공영 주차장(국민은행 옆, 대학안경 앞)",노외,강원도 태백시 황지동 253-69,37.175101,128.9886498,강원도 태백시청,033-550-2105,14일 유료운영,"14,00:00~24:00","15,00:00~24:00","16,00:00~24:00","17,00:00~24:00","18,00:00~24:00"
202,강원도,"제3공영 주차장(본죽, 산칠록목욕탕)",노상,강원도 태백시 황지동 265-91,37.1755872,128.9894433,강원도 태백시청,033-550-2105,14일 유료운영,"14,00:00~24:00","15,00:00~24:00","16,00:00~24:00","17,00:00~24:00","18,00:00~24:00"
203,강원도,"제4공영 주차장(보건소앞우회도로, 경북철물앞)",노상,강원도 태백시 황지동 17-14,37.1757214,128.9920441,강원도 태백시청,033-550-2105,14일 유료운영,"14,00:00~24:00","15,00:00~24:00","16,00:00~24:00","17,00:00~24:00","18,00:00~24:00"
204,강원도,"제5공영 주차장(노동부, 중앙로사거리)",노상,강원도 태백시 황지동 621-269,37.1716258,128.9920581,강원도 태백시청,033-550-2105,14일 유료운영,"14,00:00~24:00","15,00:00~24:00","16,00:00~24:00","17,00:00~24:00","18,00:00~24:00"
205,강원도,제6공영 주차장(한마음신협앞),노상,강원도 태백시 황지동 30-4,37.1716398,128.9925324,강원도 태백시청,033-550-2105,14일 유료운영,"14,00:00~24:00","15,00:00~24:00","16,00:00~24:00","17,00:00~24:00","18,00:00~24:00"
206,강원도,"제7공영주차장(중앙로, 국민은행, 한마음산부인과)",노외,강원도 태백시 황지동 125-198,37.164372,128.951832,강원도 태백시청,033-550-2105,14일 유료운영,"14,00:00~24:00","15,00:00~24:00","16,00:00~24:00","17,00:00~24:00","18,00:00~24:00"
207,강원도,제8공영 주차장(1주공앞),노외,강원도 태백시 황지동 630-3,37.1593814,128.9878777,강원도 태백시청,033-550-2105,14일 유료운영,"14,00:00~24:00","15,00:00~24:00","16,00:00~24:00","17,00:00~24:00","18,00:00~24:00"
208,강원도,"제9공영 주차장(고려의원옆, 광물자원공사)",노외,강원도 태백시 황지동 62-5,37.1665672,128.9919323,강원도 태백시청,033-550-2105,14일 유료운영,"14,00:00~24:00","15,00:00~24:00","16,00:00~24:00","17,00:00~24:00","18,00:00~24:00"
209,강원도,제10공영 주차장(자유시장앞),노상,강원도 태백시 황지동 36-5,37.1738923,128.9936429,강원도 태백시청,033-550-2105,14일 유료운영,"14,00:00~24:00","15,00:00~24:00","16,00:00~24:00","17,00:00~24:00","18,00:00~24:00"
210,강원도,"제11공영 주차장(대산아파트 옆, 우회도로)",노외,강원도 태백시 황지동 23-1,37.1739195,128.9942625,강원도 태백시청,033-550-2105,14일 유료운영,"14,00:00~24:00","15,00:00~24:00","16,00:00~24:00","17,00:00~24:00","18,00:00~24:00"
211,강원도,제13공영 주차장(황지연못 뒤),노상,강원도 태백시 황지동 25-55,37.1731415,128.9903202,강원도 태백시청,033-550-2105,14일 유료운영,"14,00:00~24:00","15,00:00~24:00","16,00:00~24:00","17,00:00~24:00","18,00:00~24:00"
212,강원도,설악동C2주차장,노외,강원도 속초시 설악동 324-1,38.167011,128.534364,강원도청,033-639-2663,,"14,00:00~24:00","15,00:00~24:00","16,00:00~24:00","17,00:00~24:00","18,00:00~24:00"
213,강원도,설악동C1주차장,노외,강원도 속초시 설악동 302-5,38.166581,128.531891,강원도청,033-639-2663,,"14,00:00~24:00","15,00:00~24:00","16,00:00~24:00","17,00:00~24:00","18,00:00~24:00"
214,강원도,청학2지구 주차장,노외,강원도 속초시 청학동 486-183,38.203196,128.585402,강원도 속초시청,033-639-2188,,"14,00:00~24:00","15,00:00~24:00","16,00:00~24:00","17,00:00~24:00","18,00:00~24:00"
215,강원도,청학1지구 주차장,노외,강원도 속초시 청학동 486,38.202328,128.584094,강원도 속초시청,033-639-2188,,"14,00:00~24:00","15,00:00~24:00","16,00:00~24:00","17,00:00~24:00","18,00:00~24:00"
216,강원도,엑스포 해양유람선 앞 주차장,노외,강원도 속초시 조양동 1557-1,38.190744,128.590924,강원도 속초시청,033-639-2188,,"14,00:00~24:00","15,00:00~24:00","16,00:00~24:00","17,00:00~24:00","18,00:00~24:00"
217,강원도,엑스포장 주차장,노외,강원도 속초시 조양동 1544-3,38.191338,128.585751,강원도 속초시청,033-639-2188,,"14,00:00~24:00","15,00:00~24:00","16,00:00~24:00","17,00:00~24:00","18,00:00~24:00"
218,강원도,석봉도자기 앞 주차장,노외,강원도 속초시 교동 1020-1,38.197222,128.581594,강원도 속초시청,033-639-2188,,"14,00:00~24:00","15,00:00~24:00","16,00:00~24:00","17,00:00~24:00","18,00:00~24:00"
219,강원도,청대로 먹거리단지 앞 주차장,노상,강원도 속초시 교동 990,38.195651,128.572614,강원도 속초시청,033-639-2188,,"14,00:00~24:00","15,00:00~24:00","16,00:00~24:00","17,00:00~24:00","18,00:00~24:00"
220,강원도,삼환아파트~속여고입구 주차장,노상,강원도 속초시 교동 804-106,38.199246,128.571503,강원도 속초시청,033-639-2188,,"14,00:00~24:00","15,00:00~24:00","16,00:00~24:00","17,00:00~24:00","18,00:00~24:00"
221,강원도,법대로 주차장,노상,강원도 속초시 동명동 299-6,38.212785,128.592868,강원도 속초시청,033-639-2188,,"14,00:00~24:00","15,00:00~24:00","16,00:00~24:00","17,00:00~24:00","18,00:00~24:00"
222,강원도,교동가로 주차장,노상,강원도 속초시 교동 636-14,38.203842,128.579565,강원도 속초시청,033-639-2188,,"14,00:00~24:00","15,00:00~24:00","16,00:00~24:00","17,00:00~24:00","18,00:00~24:00"
223,강원도,청학가로(번영로) 주차장,노상,강원도 속초시 청학동 488-1,38.205194,128.584151,강원도 속초시청,033-639-2188,,"14,00:00~24:00","15,00:00~24:00","16,00:00~24:00","17,00:00~24:00","18,00:00~24:00"
224,강원도,수복로 주차장,노상,강원도 속초시 청학동 483-16,38.202336,128.586534,강원도 속초시청,033-639-2188,,"14,00:00~24:00","15,00:00~24:00","16,00:00~24:00","17,00:00~24:00","18,00:00~24:00"
225,강원도,장사동 해안도로 주차장,노상,강원도 속초시 장사동 577-42,38.221989,128.590161,강원도 속초시청,033-639-2188,,"14,00:00~24:00","15,00:00~24:00","16,00:00~24:00","17,00:00~24:00","18,00:00~24:00"
226,강원도,동명동(수복탑) 주차장,노상,강원도 속초시 동명동 398-1,38.208872,128.592866,강원도 속초시청,033-639-2188,,"14,00:00~24:00","15,00:00~24:00","16,00:00~24:00","17,00:00~24:00","18,00:00~24:00"
227,강원도,영랑동(속초의료원 앞) 주차장,노상,강원도 속초시 영랑동 163-72,38.217907,128.590231,강원도 속초시청,033-639-2188,,"14,00:00~24:00","15,00:00~24:00","16,00:00~24:00","17,00:00~24:00","18,00:00~24:00"
228,강원도,설악산입구 주차장,노상,강원도 속초시 대포동 839-26,38.163741,128.607911,강원도 속초시청,033-639-2188,,"14,00:00~24:00","15,00:00~24:00","16,00:00~24:00","17,00:00~24:00","18,00:00~24:00"
229,강원도,설악동B2주차장,노외,강원도 속초시 설악동 2-2,38.168858,128.521249,강원도청,033-639-2663,,"14,00:00~24:00","15,00:00~24:00","16,00:00~24:00","17,00:00~24:00","18,00:00~24:00"
230,강원도,설악동B1주차장,노외,강원도 속초시 설악동 3-1,38.168142,128.518759,강원도청,033-639-2663,,"14,00:00~24:00","15,00:00~24:00","16,00:00~24:00","17,00:00~24:00","18,00:00~24:00"
231,강원도,영금정길 주차장,노외,강원도 속초시 동명동 1-115,38.212785,128.600394,강원도 속초시청,033-639-2188,,"14,00:00~24:00","15,00:00~24:00","16,00:00~24:00","17,00:00~24:00","18,00:00~24:00"
232,강원도,동명항길 주차장,노외,강원도 속초시 동명동 1-242,38.211988,128.599887,강원도 속초시청,033-639-2188,,"14,00:00~24:00","15,00:00~24:00","16,00:00~24:00","17,00:00~24:00","18,00:00~24:00"
233,강원도,로데오제1지구 주차장,노외,강원도 속초시 청학동 482-258,38.200362,128.584401,강원도 속초시청,033-639-2188,,"14,00:00~24:00","15,00:00~24:00","16,00:00~24:00","17,00:00~24:00","18,00:00~24:00"
234,강원도,로데오제2지구 주차장,노외,강원도 속초시 청학동 482-171,38.201911,128.586381,강원도 속초시청,033-639-2188,,"14,00:00~24:00","15,00:00~24:00","16,00:00~24:00","17,00:00~24:00","18,00:00~24:00"
235,강원도,영랑동 주차장,노외,강원도 속초시 영랑동 184-2,38.214513,128.591093,강원도 속초시청,033-639-2188,,"14,00:00~24:00","15,00:00~24:00","16,00:00~24:00","17,00:00~24:00","18,00:00~24:00"
236,강원도,강원도 삼척시 중앙로 주차장,노상,강원도 삼척시 남양동 332-6,37.441825,129.16811,강원도 삼척시청,033-570-3476,,"14,08:00~19:00","15,08:00~19:00","16,08:00~19:00","17,08:00~19:00","18,08:00~19:00"
237,강원도,강원도 삼척시 척주로 주차장,노상,강원도 삼척시 남양동 33-8,37.443708,129.16454,강원도 삼척시청,033-570-3476,,"14,08:00~19:00","15,08:00~19:00","16,08:00~19:00","17,08:00~19:00","18,08:00~19:00"
238,강원도,강원도 삼척시 진주로 주차장,노상,강원도 삼척시 남양동 102-4,37.440213,129.165216,강원도 삼척시청,033-570-3476,,"14,08:00~19:00","15,08:00~19:00","16,08:00~19:00","17,08:00~19:00","18,08:00~19:00"
239,강원도,강원도 삼척시 중앙시장1 주차장,노상,강원도 삼척시 남양동 34-1,37.443216,129.165136,강원도 삼척시청,033-570-3476,,"14,08:00~19:00","15,08:00~19:00","16,08:00~19:00","17,08:00~19:00","18,08:00~19:00"
240,강원도,강원도 삼척시 중앙시장2 주차장,노상,강원도 삼척시 남양동 39-25,37.43887,129.166391,강원도 삼척시청,033-570-3467,,"14,08:00~19:00","15,08:00~19:00","16,08:00~19:00","17,08:00~19:00","18,08:00~19:00"
241,강원도,강원도 삼척시 사대안길 주차장,노상,강원도 삼척시 남양동 23-11,37.444758,129.165585,강원도 삼척시청,033-570-3467,,"14,08:00~19:00","15,08:00~19:00","16,08:00~19:00","17,08:00~19:00","18,08:00~19:00"
242,강원도,강원도 삼척시 대학로1 주차장,노외,강원도 삼척시 당저동 145-3,37.444382,129.162891,강원도 삼척시청,033-570-3467,지하주차장,"14,08:00~19:00","15,08:00~19:00","16,08:00~19:00","17,08:00~19:00","18,08:00~19:00"
243,강원도,강원도 삼척시 대학로2 주차장,노상,강원도 삼척시 당저동 145-4,37.445425,129.163109,강원도 삼척시청,033-570-3467,,"14,08:00~19:00","15,08:00~19:00","16,08:00~19:00","17,08:00~19:00","18,08:00~19:00"
244,강원도,희망리 제1공영노외주차장,노외,강원도 홍천군 홍천읍 희망리 371-2,37.6892494,127.881354,홍천군청 전원도시과,033-430-2945,"14일 유료, 연휴기간 무료","14,09:00~18:00","15,09:00~18:00","16,09:00~18:00","17,09:00~18:00","18,09:00~18:00"
245,강원도,희망리 제2공영노외주차장,노외,강원도 홍천군 홍천읍 번영로 9,37.6897484,127.8812262,홍천군청 전원도시과,033-430-2945,"14일 유료, 연휴기간 무료","14,09:00~18:00","15,09:00~18:00","16,09:00~18:00","17,09:00~18:00","18,09:00~18:00"
246,강원도,홍천강변둔치주차장,노외,강원도 홍천군 홍천읍 홍천로 348,37.6882117,127.8844012,홍천군청 전원도시과,033-430-2945,무료주차장,"14,09:00~18:00","15,09:00~18:00","16,09:00~18:00","17,09:00~18:00","18,09:00~18:00"
247,강원도,갈마곡리노외주차장,노외,강원도 홍천군 홍천읍 홍천로 462,37.6945548,127.894683,홍천군청 전원도시과,033-430-2945,무료주차장,"14,09:00~18:00","15,09:00~18:00","16,09:00~18:00","17,09:00~18:00","18,09:00~18:00"
248,강원도,연봉공영노외주차장,노외,강원도 홍천군 홍천읍 연봉로6길 11,37.6821804,127.8758745,홍천군청 전원도시과,033-430-2945,무료주차장,"14,09:00~18:00","15,09:00~18:00","16,09:00~18:00","17,09:00~18:00","18,09:00~18:00"
249,강원도,희망리 제3공영노외주차장,노외,강원도 홍천군 홍천읍 희망리 67-4,37.6926852,127.8860327,홍천군청 전원도시과,033-430-2945,"14일 유료, 연휴기간 무료","14,09:00~18:00","15,09:00~18:00","16,09:00~18:00","17,09:00~18:00","18,09:00~18:00"
250,강원도,신장대리 구홍천문화원 공영노외주차장,노외,강원도 홍천군 홍천읍 홍천로 380,37.6893797,127.8874426,홍천군청 전원도시과,033-430-2945,무료주차장,"14,09:00~18:00","15,09:00~18:00","16,09:00~18:00","17,09:00~18:00","18,09:00~18:00"
251,강원도,희망리 마지기 주택지 공영노외주차장,노외,강원도 홍천군 홍천읍 희망리 408-79,37.6998075,127.8836483,홍천군청 전원도시과,033-430-2945,무료주차장,"14,09:00~18:00","15,09:00~18:00","16,09:00~18:00","17,09:00~18:00","18,09:00~18:00"
252,강원도,덕포시장 골목(입구-역전방향),노상,강원도 영월군 영월읍 영흥리 574-168,37.2074792,128.4762112,강원도 영월군청,033-370-2356,무료이용,"14,00:00~24:00","15,00:00~24:00","16,00:00~24:00","17,00:00~24:00","18,00:00~24:00"
253,강원도,"내성초교 진입로 방향(상,하)",노상,강원도 영월군 영월읍 영흥리 800-8,37.1889203,128.4733532,강원도 영월군청,033-370-2356,무료이용,"14,00:00~24:00","15,00:00~24:00","16,00:00~24:00","17,00:00~24:00","18,00:00~24:00"
254,강원도,영파회전교차로 인근(도미노 피자 우측),노상,강원도 영월군 영월읍 영흥리 904-11,37.1829045,128.4728798,강원도 영월군청,033-370-2356,무료이용,"14,00:00~24:00","15,00:00~24:00","16,00:00~24:00","17,00:00~24:00","18,00:00~24:00"
255,강원도,경찰서 우측(황금돼지 맞은편쪽),노상,강원도 영월군 영월읍 영흥리 947-2,37.1837269,128.4670487,강원도 영월군청,033-370-2356,무료이용,"14,00:00~24:00","15,00:00~24:00","16,00:00~24:00","17,00:00~24:00","18,00:00~24:00"
256,강원도,경찰서 좌측(경찰서 관사 방면),노상,강원도 영월군 영월읍 영흥리 949-2,37.1849863,128.4676016,강원도 영월군청,033-370-2356,무료이용,"14,00:00~24:00","15,00:00~24:00","16,00:00~24:00","17,00:00~24:00","18,00:00~24:00"
257,강원도,경찰서 후면(KT 방면),노상,강원도 영월군 영월읍 영흥리 950-4,37.1848436,128.4670083,강원도 영월군청,033-370-2356,무료이용,"14,00:00~24:00","15,00:00~24:00","16,00:00~24:00","17,00:00~24:00","18,00:00~24:00"
258,강원도,통신공사 좌측(KT담장-우체국 방면),노상,강원도 영월군 영월읍 영흥리 950-4,37.1848436,128.4670083,강원도 영월군청,033-370-2356,무료이용,"14,00:00~24:00","15,00:00~24:00","16,00:00~24:00","17,00:00~24:00","18,00:00~24:00"
259,강원도,통신공사 우측(중부노인회관 방면),노상,강원도 영월군 영월읍 영흥리 951-4,37.1842596,128.4663402,강원도 영월군청,033-370-2356,무료이용,"14,00:00~24:00","15,00:00~24:00","16,00:00~24:00","17,00:00~24:00","18,00:00~24:00"
260,강원도,여성회관-서민들(한방향),노상,강원도 영월군 영월읍 영흥리 975-2,37.1846295,128.468515,강원도 영월군청,033-370-2356,무료이용,"14,00:00~24:00","15,00:00~24:00","16,00:00~24:00","17,00:00~24:00","18,00:00~24:00"
261,강원도,신한은행 앞,노상,강원도 영월군 영월읍 영흥리 988-7,37.1840819,128.4702709,강원도 영월군청,033-370-2356,무료이용,"14,00:00~24:00","15,00:00~24:00","16,00:00~24:00","17,00:00~24:00","18,00:00~24:00"
262,강원도,구 읍민관 주변,노상,강원도 영월군 영월읍 영흥리 990-2,37.1844901,128.470493,강원도 영월군청,033-370-2356,무료이용,"14,00:00~24:00","15,00:00~24:00","16,00:00~24:00","17,00:00~24:00","18,00:00~24:00"
263,강원도,영월군청 앞 세무서간 도시계획도로,노상,강원도 영월군 영월읍 하송리 185-2,37.1816932,128.4649594,강원도 영월군청,033-370-2356,무료이용,"14,00:00~24:00","15,00:00~24:00","16,00:00~24:00","17,00:00~24:00","18,00:00~24:00"
264,강원도,세무서-터미널방면(동강한우 담 밑),노상,강원도 영월군 영월읍 하송리 186-2,37.1820061,128.4658331,강원도 영월군청,033-370-2356,무료이용,"14,00:00~24:00","15,00:00~24:00","16,00:00~24:00","17,00:00~24:00","18,00:00~24:00"
265,강원도,세무서-종합상가(양방향),노상,강원도 영월군 영월읍 하송리 190-8,37.1819348,128.4667663,강원도 영월군청,033-370-2356,무료이용,"14,00:00~24:00","15,00:00~24:00","16,00:00~24:00","17,00:00~24:00","18,00:00~24:00"
266,강원도,주공4차(아) 후면도로,노상,강원도 영월군 영월읍 하송리 394-2,37.1770585,128.4592282,강원도 영월군청,033-370-2356,무료이용,"14,00:00~24:00","15,00:00~24:00","16,00:00~24:00","17,00:00~24:00","18,00:00~24:00"
267,강원도,주공3차-J클래식,노상,강원도 영월군 영월읍 하송리 403-4,37.1769113,128.4579334,강원도 영월군청,033-370-2356,무료이용,"14,00:00~24:00","15,00:00~24:00","16,00:00~24:00","17,00:00~24:00","18,00:00~24:00"
268,강원도,선관위-레스트힐 방면,노상,강원도 영월군 영월읍 하송리 1110-68,37.1774496,128.4608387,강원도 영월군청,033-370-2356,무료이용,"14,00:00~24:00","15,00:00~24:00","16,00:00~24:00","17,00:00~24:00","18,00:00~24:00"
269,강원도,녹전중학교 교문 옆,노상,강원도 영월군 중동면 녹전리 795-2,37.1437614,128.6786146,강원도 영월군청,033-370-2356,무료이용,"14,00:00~24:00","15,00:00~24:00","16,00:00~24:00","17,00:00~24:00","18,00:00~24:00"
270,강원도,주천교 앞 노상주차장,노상,강원도 영월군 주천면 신일리 1637,37.2675168,128.2652966,강원도 영월군청,033-370-2356,무료이용,"14,00:00~24:00","15,00:00~24:00","16,00:00~24:00","17,00:00~24:00","18,00:00~24:00"
271,강원도,엄흥도기념관,노외,강원도 영월군 영월읍 영흥리 131-1,37.1897678,128.4772804,강원도 영월군청,033-370-2356,무료이용,"14,00:00~24:00","15,00:00~24:00","16,00:00~24:00","17,00:00~24:00","18,00:00~24:00"
272,강원도,백년기와 옆,노외,강원도 영월군 영월읍 영흥리 727-36,37.1875315,128.47317,강원도 영월군청,033-370-2356,무료이용,"14,00:00~24:00","15,00:00~24:00","16,00:00~24:00","17,00:00~24:00","18,00:00~24:00"
273,강원도,내성경로당 앞,노외,강원도 영월군 영월읍 영흥리 768-4,37.1873766,128.4756379,강원도 영월군청,033-370-2356,무료이용,"14,00:00~24:00","15,00:00~24:00","16,00:00~24:00","17,00:00~24:00","18,00:00~24:00"
274,강원도,동양주택 뒤쪽(내성길21번길 12 앞 주차장),노외,강원도 영월군 영월읍 영흥리 784-2,37.1884298,128.4736576,강원도 영월군청,033-370-2356,무료이용,"14,00:00~24:00","15,00:00~24:00","16,00:00~24:00","17,00:00~24:00","18,00:00~24:00"
275,강원도,내성길31번길38 건너편,노외,강원도 영월군 영월읍 영흥리 787-4,37.1889281,128.4750045,강원도 영월군청,033-370-2356,무료이용,"14,00:00~24:00","15,00:00~24:00","16,00:00~24:00","17,00:00~24:00","18,00:00~24:00"
276,강원도,영월중학교 운동장 맞은편,노외,강원도 영월군 영월읍 영흥리 802-20,37.190846,128.47314,강원도 영월군청,033-370-2356,무료이용,"14,00:00~24:00","15,00:00~24:00","16,00:00~24:00","17,00:00~24:00","18,00:00~24:00"
277,강원도,영월고등학교 정문 맞은편,노외,강원도 영월군 영월읍 영흥리 802-21,37.1898044,128.4731199,강원도 영월군청,033-370-2356,무료이용,"14,00:00~24:00","15,00:00~24:00","16,00:00~24:00","17,00:00~24:00","18,00:00~24:00"
278,강원도,축복교회 앞,노외,강원도 영월군 영월읍 영흥리 810-12,37.187276,128.4726266,강원도 영월군청,033-370-2356,무료이용,"14,00:00~24:00","15,00:00~24:00","16,00:00~24:00","17,00:00~24:00","18,00:00~24:00"
279,강원도,"영모전길 64-10
(동진빌라 맞은편)",노외,강원도 영월군 영월읍 영흥리 817-14,37.1861882,128.4715228,강원도 영월군청,033-370-2356,무료이용,"14,00:00~24:00","15,00:00~24:00","16,00:00~24:00","17,00:00~24:00","18,00:00~24:00"
280,강원도,삼춘식육점 옆,노외,강원도 영월군 영월읍 영흥리 832-1,37.1851793,128.4716607,강원도 영월군청,033-370-2356,무료이용,"14,00:00~24:00","15,00:00~24:00","16,00:00~24:00","17,00:00~24:00","18,00:00~24:00"
281,강원도,영파-영월오토바이,노외,강원도 영월군 영월읍 영흥리 833-1,37.1848704,128.4716273,강원도 영월군청,033-370-2356,무료이용,"14,00:00~24:00","15,00:00~24:00","16,00:00~24:00","17,00:00~24:00","18,00:00~24:00"
282,강원도,구 시외버스터미널부지,노외,강원도 영월군 영월읍 영흥리 848-1,37.183604,128.4730633,강원도 영월군청,033-370-2356,무료이용,"14,00:00~24:00","15,00:00~24:00","16,00:00~24:00","17,00:00~24:00","18,00:00~24:00"
283,강원도,향교앞,노외,강원도 영월군 영월읍 영흥리 851-2,37.1845071,128.4741309,강원도 영월군청,033-370-2356,무료이용,"14,00:00~24:00","15,00:00~24:00","16,00:00~24:00","17,00:00~24:00","18,00:00~24:00"
284,강원도,향교 맞은편,노외,강원도 영월군 영월읍 영흥리 884,37.1856489,128.4747902,강원도 영월군청,033-370-2356,무료이용,"14,00:00~24:00","15,00:00~24:00","16,00:00~24:00","17,00:00~24:00","18,00:00~24:00"
285,강원도,금강정 주차장,노외,강원도 영월군 영월읍 영흥리 891-3,37.1859553,128.4759049,강원도 영월군청,033-370-2356,무료이용,"14,00:00~24:00","15,00:00~24:00","16,00:00~24:00","17,00:00~24:00","18,00:00~24:00"
286,강원도,설원칡냉면 옆,노외,강원도 영월군 영월읍 영흥리 901-68,37.1832,128.473349,강원도 영월군청,033-370-2356,무료이용,"14,00:00~24:00","15,00:00~24:00","16,00:00~24:00","17,00:00~24:00","18,00:00~24:00"
287,강원도,중앙시장 주상복합아파트 제3공영주차장,노외,강원도 영월군 영월읍 영흥리 907-1,37.1830297,128.4722082,강원도 영월군청,033-370-2356,무료이용,"14,00:00~24:00","15,00:00~24:00","16,00:00~24:00","17,00:00~24:00","18,00:00~24:00"
288,강원도,중앙시장 주상복합아파트 제2공영주차장,노외,강원도 영월군 영월읍 영흥리 914-1,37.1831594,128.4713362,강원도 영월군청,033-370-2356,무료이용,"14,00:00~24:00","15,00:00~24:00","16,00:00~24:00","17,00:00~24:00","18,00:00~24:00"
289,강원도,하나로마트 후면,노외,강원도 영월군 영월읍 영흥리 925-28,37.1820913,128.4702608,강원도 영월군청,033-370-2356,무료이용,"14,00:00~24:00","15,00:00~24:00","16,00:00~24:00","17,00:00~24:00","18,00:00~24:00"
290,강원도,길성이식당 위,노외,강원도 영월군 영월읍 영흥리 927-13,37.182561,128.4688413,강원도 영월군청,033-370-2356,무료이용,"14,00:00~24:00","15,00:00~24:00","16,00:00~24:00","17,00:00~24:00","18,00:00~24:00"
291,강원도,중앙시장 주상복합아파트 제1공영주차장,노외,강원도 영월군 영월읍 영흥리 930-1,37.1825372,128.4709742,강원도 영월군청,033-370-2356,무료이용,"14,00:00~24:00","15,00:00~24:00","16,00:00~24:00","17,00:00~24:00","18,00:00~24:00"
292,강원도,백승야식 옆,노외,강원도 영월군 영월읍 영흥리 941-1,37.1830891,128.4697556,강원도 영월군청,033-370-2356,무료이용,"14,00:00~24:00","15,00:00~24:00","16,00:00~24:00","17,00:00~24:00","18,00:00~24:00"
293,강원도,문화예술회관 주차장,노외,강원도 영월군 영월읍 영흥리 961-2,37.1859101,128.4684903,강원도 영월군청,033-370-2356,무료이용,"14,00:00~24:00","15,00:00~24:00","16,00:00~24:00","17,00:00~24:00","18,00:00~24:00"
294,강원도,단종로16번길 9-11 옆,노외,강원도 영월군 영월읍 영흥리 965-2,37.1858562,128.468892,강원도 영월군청,033-370-2356,무료이용,"14,00:00~24:00","15,00:00~24:00","16,00:00~24:00","17,00:00~24:00","18,00:00~24:00"
295,강원도,"관풍헌길 97-6
(이화빌라 옆)",노외,강원도 영월군 영월읍 영흥리 967-12,37.185856,128.4694067,강원도 영월군청,033-370-2356,무료이용,"14,00:00~24:00","15,00:00~24:00","16,00:00~24:00","17,00:00~24:00","18,00:00~24:00"
296,강원도,영월시네마 앞,노외,강원도 영월군 영월읍 영흥리 971-3,37.1846561,128.469994,강원도 영월군청,033-370-2356,무료이용,"14,00:00~24:00","15,00:00~24:00","16,00:00~24:00","17,00:00~24:00","18,00:00~24:00"
297,강원도,카페메이트-영월웨딩홀 사이,노외,강원도 영월군 영월읍 영흥리 971-25,37.1844456,128.4692032,강원도 영월군청,033-370-2356,무료이용,"14,00:00~24:00","15,00:00~24:00","16,00:00~24:00","17,00:00~24:00","18,00:00~24:00"
298,강원도,"명동화원 앞
(영월웨딩홀 아래)",노외,강원도 영월군 영월읍 영흥리 972-23,37.1839592,128.4693894,강원도 영월군청,033-370-2356,무료이용,"14,00:00~24:00","15,00:00~24:00","16,00:00~24:00","17,00:00~24:00","18,00:00~24:00"
299,강원도,종합사회복지관-현대자동차 뒤,노외,강원도 영월군 영월읍 영흥리 975-4,37.1842751,128.4685782,강원도 영월군청,033-370-2356,무료이용,"14,00:00~24:00","15,00:00~24:00","16,00:00~24:00","17,00:00~24:00","18,00:00~24:00"
300,강원도,관풍헌길 100,노외,강원도 영월군 영월읍 영흥리 1000-4,37.1860067,128.4700305,강원도 영월군청,033-370-2356,무료이용,"14,00:00~24:00","15,00:00~24:00","16,00:00~24:00","17,00:00~24:00","18,00:00~24:00"
301,강원도,단종로 34번길 45(옆),노외,강원도 영월군 영월읍 영흥리 1012-3,37.1869161,128.4693119,강원도 영월군청,033-370-2356,무료이용,"14,00:00~24:00","15,00:00~24:00","16,00:00~24:00","17,00:00~24:00","18,00:00~24:00"
302,강원도,부자상회-영모전간,노외,강원도 영월군 영월읍 영흥리 1033-10,37.1870969,128.4709789,강원도 영월군청,033-370-2356,무료이용,"14,00:00~24:00","15,00:00~24:00","16,00:00~24:00","17,00:00~24:00","18,00:00~24:00"
303,강원도,다우빌라 앞(유료주차장),노외,강원도 영월군 영월읍 영흥리 1033-15,37.1882837,128.469379,강원도 영월군청,033-370-2356,무료이용,"14,00:00~24:00","15,00:00~24:00","16,00:00~24:00","17,00:00~24:00","18,00:00~24:00"
304,강원도,영모전,노외,강원도 영월군 영월읍 영흥리 1033-33,37.1890974,128.4698526,강원도 영월군청,033-370-2356,무료이용,"14,00:00~24:00","15,00:00~24:00","16,00:00~24:00","17,00:00~24:00","18,00:00~24:00"
305,강원도,수정빌라 옆,노외,강원도 영월군 영월읍 영흥리 1053-3,37.1907926,128.4631489,강원도 영월군청,033-370-2356,무료이용,"14,00:00~24:00","15,00:00~24:00","16,00:00~24:00","17,00:00~24:00","18,00:00~24:00"
306,강원도,(임차)창절서원주차장,노외,강원도 영월군 영월읍 영흥리 1062-5,37.1885393,128.4655736,강원도 영월군청,033-370-2356,무료이용,"14,00:00~24:00","15,00:00~24:00","16,00:00~24:00","17,00:00~24:00","18,00:00~24:00"
307,강원도,춘자슈퍼 옆,노외,강원도 영월군 영월읍 영흥리 1096-6,37.1948072,128.4561727,강원도 영월군청,033-370-2356,무료이용,"14,00:00~24:00","15,00:00~24:00","16,00:00~24:00","17,00:00~24:00","18,00:00~24:00"
308,강원도,단종로 177-11 앞,노외,강원도 영월군 영월읍 영흥리 1101-21,37.1997143,128.4749599,강원도 영월군청,033-370-2356,무료이용,"14,00:00~24:00","15,00:00~24:00","16,00:00~24:00","17,00:00~24:00","18,00:00~24:00"
309,강원도,장릉보리밥집 앞,노외,강원도 영월군 영월읍 영흥리 1105-10,37.1962557,128.4553535,강원도 영월군청,033-370-2356,무료이용,"14,00:00~24:00","15,00:00~24:00","16,00:00~24:00","17,00:00~24:00","18,00:00~24:00"
310,강원도,웰빙주차장(보덕사 밑),노외,강원도 영월군 영월읍 영흥리 1112,37.1988275,128.4574743,강원도 영월군청,033-370-2356,무료이용,"14,00:00~24:00","15,00:00~24:00","16,00:00~24:00","17,00:00~24:00","18,00:00~24:00"
311,강원도,장릉주차장,노외,강원도 영월군 영월읍 하송리 7,37.1821535,128.4661628,강원도 영월군청,033-370-2356,무료이용,"14,00:00~24:00","15,00:00~24:00","16,00:00~24:00","17,00:00~24:00","18,00:00~24:00"
312,강원도,(협약)동강한우타운 주차장,노외,강원도 영월군 영월읍 하송리 23-7,37.1818939,128.4698124,강원도 영월군청,033-370-2356,무료이용,"14,00:00~24:00","15,00:00~24:00","16,00:00~24:00","17,00:00~24:00","18,00:00~24:00"
313,강원도,(임차)영월초등학교 후문주차장,노외,강원도 영월군 영월읍 하송리 56,37.1783688,128.467054,강원도 영월군청,033-370-2356,무료이용,"14,00:00~24:00","15,00:00~24:00","16,00:00~24:00","17,00:00~24:00","18,00:00~24:00"
314,강원도,생활체육시설,노외,강원도 영월군 영월읍 하송리 90-8,37.1772901,128.4606418,강원도 영월군청,033-370-2356,무료이용,"14,00:00~24:00","15,00:00~24:00","16,00:00~24:00","17,00:00~24:00","18,00:00~24:00"
315,강원도,주공2차-주공4차 간,노외,강원도 영월군 영월읍 하송리 185-2,37.1816932,128.4649594,강원도 영월군청,033-370-2356,무료이용,"14,00:00~24:00","15,00:00~24:00","16,00:00~24:00","17,00:00~24:00","18,00:00~24:00"
316,강원도,영월군청 앞 세무서간 도시계획도로 주변,노외,강원도 영월군 영월읍 하송리 195-3,37.1827984,128.4643986,강원도 영월군청,033-370-2356,무료이용,"14,00:00~24:00","15,00:00~24:00","16,00:00~24:00","17,00:00~24:00","18,00:00~24:00"
317,강원도,하송연립 인근 능동천복개주차장,노외,강원도 영월군 영월읍 하송리 242,37.1837926,128.4620204,강원도 영월군청,033-370-2356,무료이용,"14,00:00~24:00","15,00:00~24:00","16,00:00~24:00","17,00:00~24:00","18,00:00~24:00"
318,강원도,군청 밑 안산공원 주차장,노외,강원도 영월군 영월읍 하송리 255-3,37.1844818,128.4650633,강원도 영월군청,033-370-2356,무료이용,"14,00:00~24:00","15,00:00~24:00","16,00:00~24:00","17,00:00~24:00","18,00:00~24:00"
319,강원도,(협약)영월대교회 주차장,노외,강원도 영월군 영월읍 하송리 379-12,37.1774496,128.4608387,강원도 영월군청,033-370-2356,무료이용,"14,00:00~24:00","15,00:00~24:00","16,00:00~24:00","17,00:00~24:00","18,00:00~24:00"
320,강원도,삼성마트 길 건너편,노외,강원도 영월군 영월읍 하송리 398-1,37.1767068,128.4590864,강원도 영월군청,033-370-2356,무료이용,"14,00:00~24:00","15,00:00~24:00","16,00:00~24:00","17,00:00~24:00","18,00:00~24:00"
321,강원도,하송리 주차장(스포츠파크 방면 J클래식 앞),노외,강원도 영월군 영월읍 하송리 421-2,37.1760985,128.4590963,강원도 영월군청,033-370-2356,무료이용,"14,00:00~24:00","15,00:00~24:00","16,00:00~24:00","17,00:00~24:00","18,00:00~24:00"
322,강원도,스포츠파크 유휴부지 활용 주차장,노외,강원도 영월군 영월읍 하송리 432-24,37.1742879,128.4558872,강원도 영월군청,033-370-2356,무료이용,"14,00:00~24:00","15,00:00~24:00","16,00:00~24:00","17,00:00~24:00","18,00:00~24:00"
323,강원도,영흥택시 옆 교량하부 공영주차장,노외,강원도 영월군 영월읍 방절리 223-4,37.1821252,128.4503932,강원도 영월군청,033-370-2356,무료이용,"14,00:00~24:00","15,00:00~24:00","16,00:00~24:00","17,00:00~24:00","18,00:00~24:00"
324,강원도,청령포 다리 밑,노외,강원도 영월군 영월읍 방절리 240,37.1784321,128.4485762,강원도 영월군청,033-370-2356,무료이용,"14,00:00~24:00","15,00:00~24:00","16,00:00~24:00","17,00:00~24:00","18,00:00~24:00"
325,강원도,청령포주차장,노외,강원도 영월군 영월읍 방절리 373-1,37.2063169,128.4346723,강원도 영월군청,033-370-2356,무료이용,"14,00:00~24:00","15,00:00~24:00","16,00:00~24:00","17,00:00~24:00","18,00:00~24:00"
326,강원도,선돌주차장,노외,강원도 영월군 영월읍 방절리 476-2,37.1826615,128.4414969,강원도 영월군청,033-370-2356,무료이용,"14,00:00~24:00","15,00:00~24:00","16,00:00~24:00","17,00:00~24:00","18,00:00~24:00"
327,강원도,신아아파트 앞,노외,강원도 영월군 영월읍 덕포리 202-1,37.1826156,128.4980932,강원도 영월군청,033-370-2356,무료이용,"14,00:00~24:00","15,00:00~24:00","16,00:00~24:00","17,00:00~24:00","18,00:00~24:00"
328,강원도,약물내기 주차장,노외,강원도 영월군 영월읍 덕포리 486-2,37.1827598,128.4788423,강원도 영월군청,033-370-2356,무료이용,"14,00:00~24:00","15,00:00~24:00","16,00:00~24:00","17,00:00~24:00","18,00:00~24:00"
329,강원도,덕포전통시장 주차장,노외,강원도 영월군 영월읍 덕포리 486-22,37.1809787,128.4778625,강원도 영월군청,033-370-2356,무료이용,"14,00:00~24:00","15,00:00~24:00","16,00:00~24:00","17,00:00~24:00","18,00:00~24:00"
330,강원도,(협약)대한예수장로교회 주차장,노외,강원도 영월군 영월읍 덕포리 486-233,37.1814059,128.4791795,강원도 영월군청,033-370-2356,무료이용,"14,00:00~24:00","15,00:00~24:00","16,00:00~24:00","17,00:00~24:00","18,00:00~24:00"
331,강원도,영월역 주차장(소형),노외,강원도 영월군 영월읍 덕포리 505,37.1769717,128.4883025,강원도 영월군청,033-370-2356,무료이용,"14,00:00~24:00","15,00:00~24:00","16,00:00~24:00","17,00:00~24:00","18,00:00~24:00"
332,강원도,(임차)금용아파트 맞은편 주차장,노외,강원도 영월군 영월읍 덕포리 507,37.1822255,128.4803898,강원도 영월군청,033-370-2356,무료이용,"14,00:00~24:00","15,00:00~24:00","16,00:00~24:00","17,00:00~24:00","18,00:00~24:00"
333,강원도,(임차)영월역 하역주차장,노외,강원도 영월군 영월읍 덕포리 555-1,37.1768364,128.4746754,강원도 영월군청,033-370-2356,무료이용,"14,00:00~24:00","15,00:00~24:00","16,00:00~24:00","17,00:00~24:00","18,00:00~24:00"
334,강원도,느티나무길 72-1,노외,강원도 영월군 영월읍 덕포리 560-5,37.1772852,128.4764575,강원도 영월군청,033-370-2356,무료이용,"14,00:00~24:00","15,00:00~24:00","16,00:00~24:00","17,00:00~24:00","18,00:00~24:00"
335,강원도,봉래초교 정문 앞,노외,강원도 영월군 영월읍 덕포리 574-66,37.1792053,128.4769448,강원도 영월군청,033-370-2356,무료이용,"14,00:00~24:00","15,00:00~24:00","16,00:00~24:00","17,00:00~24:00","18,00:00~24:00"
336,강원도,덕포보건지소 주차장,노외,강원도 영월군 영월읍 덕포리 574-343,37.1792463,128.4755013,강원도 영월군청,033-370-2356,무료이용,"14,00:00~24:00","15,00:00~24:00","16,00:00~24:00","17,00:00~24:00","18,00:00~24:00"
337,강원도,극동공업사 건너편,노외,강원도 영월군 영월읍 덕포리 616-4,37.1736598,128.4791779,강원도 영월군청,033-370-2356,무료이용,"14,00:00~24:00","15,00:00~24:00","16,00:00~24:00","17,00:00~24:00","18,00:00~24:00"
338,강원도,미소가아파트 옆,노외,강원도 영월군 영월읍 덕포리 635-1,37.1762481,128.4782269,강원도 영월군청,033-370-2356,무료이용,"14,00:00~24:00","15,00:00~24:00","16,00:00~24:00","17,00:00~24:00","18,00:00~24:00"
339,강원도,덕포지구(소로2-70) 노외주차장 3,노외,강원도 영월군 영월읍 덕포리 641-6,37.1751959,128.479486,강원도 영월군청,033-370-2356,무료이용,"14,00:00~24:00","15,00:00~24:00","16,00:00~24:00","17,00:00~24:00","18,00:00~24:00"
340,강원도,덕포하리1길 47(앞),노외,강원도 영월군 영월읍 덕포리 659,37.173151,128.480651,강원도 영월군청,033-370-2356,무료이용,"14,00:00~24:00","15,00:00~24:00","16,00:00~24:00","17,00:00~24:00","18,00:00~24:00"
341,강원도,덕포하리6길 43-29인근,노외,강원도 영월군 영월읍 덕포리 674-5,37.1696251,128.4783845,강원도 영월군청,033-370-2356,무료이용,"14,00:00~24:00","15,00:00~24:00","16,00:00~24:00","17,00:00~24:00","18,00:00~24:00"
342,강원도,(임차)동부감리교회 맞은편 주차장,노외,강원도 영월군 영월읍 덕포리 795-2,37.17453,128.475447,강원도 영월군청,033-370-2356,무료이용,"14,00:00~24:00","15,00:00~24:00","16,00:00~24:00","17,00:00~24:00","18,00:00~24:00"
343,강원도,섭새주차장,노외,강원도 영월군 영월읍 삼옥리 236,37.2325349,128.5113963,강원도 영월군청,033-370-2356,무료이용,"14,00:00~24:00","15,00:00~24:00","16,00:00~24:00","17,00:00~24:00","18,00:00~24:00"
344,강원도,동굴민박 건너편,노외,강원도 영월군 영월읍 삼옥리 301,37.221938,128.5109484,강원도 영월군청,033-370-2356,무료이용,"14,00:00~24:00","15,00:00~24:00","16,00:00~24:00","17,00:00~24:00","18,00:00~24:00"
345,강원도,동강생태정보센터,노외,강원도 영월군 영월읍 삼옥리 896,37.2281567,128.5056691,강원도 영월군청,033-370-2356,무료이용,"14,00:00~24:00","15,00:00~24:00","16,00:00~24:00","17,00:00~24:00","18,00:00~24:00"
346,강원도,문산주차장,노외,강원도 영월군 영월읍 문산리 413-1,37.2717912,128.5273719,강원도 영월군청,033-370-2356,무료이용,"14,00:00~24:00","15,00:00~24:00","16,00:00~24:00","17,00:00~24:00","18,00:00~24:00"
347,강원도,을밀대 상부,노외,강원도 영월군 영월읍 연하리 832-1,37.1830446,128.5067805,강원도 영월군청,033-370-2356,무료이용,"14,00:00~24:00","15,00:00~24:00","16,00:00~24:00","17,00:00~24:00","18,00:00~24:00"
348,강원도,구래리 약수터 주차장,노외,강원도 영월군 상동읍 구래리 95-59,37.1333201,128.8348896,강원도 영월군청,033-370-2356,무료이용,"14,00:00~24:00","15,00:00~24:00","16,00:00~24:00","17,00:00~24:00","18,00:00~24:00"
349,강원도,구래리 103-13 맞은편,노외,강원도 영월군 상동읍 구래리 103-13,37.1380441,128.8376507,강원도 영월군청,033-370-2356,무료이용,"14,00:00~24:00","15,00:00~24:00","16,00:00~24:00","17,00:00~24:00","18,00:00~24:00"
350,강원도,상동소방서 앞,노외,강원도 영월군 상동읍 구래리 103-215,37.143754,128.8396126,강원도 영월군청,033-370-2356,무료이용,"14,00:00~24:00","15,00:00~24:00","16,00:00~24:00","17,00:00~24:00","18,00:00~24:00"
351,강원도,설령약수터 주차장,노외,강원도 영월군 중동면 이목리 180-2,37.162152,128.6698043,강원도 영월군청,033-370-2356,무료이용,"14,00:00~24:00","15,00:00~24:00","16,00:00~24:00","17,00:00~24:00","18,00:00~24:00"
352,강원도,고씨굴(강변) 주차장,노외,강원도 영월군 김삿갓면 진별리 498-1,37.1307455,128.5347718,강원도 영월군청,033-370-2356,무료이용,"14,00:00~24:00","15,00:00~24:00","16,00:00~24:00","17,00:00~24:00","18,00:00~24:00"
353,강원도,고씨굴 주차장,노외,강원도 영월군 김삿갓면 진별리 506-1,37.130865,128.5356494,강원도 영월군청,033-370-2356,무료이용,"14,00:00~24:00","15,00:00~24:00","16,00:00~24:00","17,00:00~24:00","18,00:00~24:00"
354,강원도,조선민화박물관 출입구 주차장,노외,강원도 영월군 김삿갓면 와석리 87-1,37.0849701,128.6390514,강원도 영월군청,033-370-2356,무료이용,"14,00:00~24:00","15,00:00~24:00","16,00:00~24:00","17,00:00~24:00","18,00:00~24:00"
355,강원도,김삿갓계곡 든돌마을,노외,강원도 영월군 김삿갓면 와석리 606,37.1142236,128.604662,강원도 영월군청,033-370-2356,무료이용,"14,00:00~24:00","15,00:00~24:00","16,00:00~24:00","17,00:00~24:00","18,00:00~24:00"
356,강원도,노루목상회 옆,노외,강원도 영월군 김삿갓면 와석리 921-3,37.081613,128.6022816,강원도 영월군청,033-370-2356,무료이용,"14,00:00~24:00","15,00:00~24:00","16,00:00~24:00","17,00:00~24:00","18,00:00~24:00"
357,강원도,김삿갓박물관 앞,노외,강원도 영월군 김삿갓면 와석리 922,37.0808994,128.6017339,강원도 영월군청,033-370-2356,무료이용,"14,00:00~24:00","15,00:00~24:00","16,00:00~24:00","17,00:00~24:00","18,00:00~24:00"
358,강원도,마차중.고 가는길,노외,강원도 영월군 북면 마차리 182-1,37.2988609,128.4855521,강원도 영월군청,033-370-2356,무료이용,"14,00:00~24:00","15,00:00~24:00","16,00:00~24:00","17,00:00~24:00","18,00:00~24:00"
359,강원도,마차중.고 가는길,노외,강원도 영월군 북면 마차리 1180-22,37.2552184,128.453998,강원도 영월군청,033-370-2356,무료이용,"14,00:00~24:00","15,00:00~24:00","16,00:00~24:00","17,00:00~24:00","18,00:00~24:00"
360,강원도,삼방빌라 뒤,노외,강원도 영월군 북면 마차리 1188-43,37.2535416,128.4581634,강원도 영월군청,033-370-2356,무료이용,"14,00:00~24:00","15,00:00~24:00","16,00:00~24:00","17,00:00~24:00","18,00:00~24:00"
361,강원도,마차보건지소 앞,노외,강원도 영월군 북면 마차리 1190-15,37.2546545,128.4560384,강원도 영월군청,033-370-2356,무료이용,"14,00:00~24:00","15,00:00~24:00","16,00:00~24:00","17,00:00~24:00","18,00:00~24:00"
362,강원도,조양마을길 14-1 앞,노외,강원도 영월군 남면 연당리 937,37.1946126,128.4032312,강원도 영월군청,033-370-2356,무료이용,"14,00:00~24:00","15,00:00~24:00","16,00:00~24:00","17,00:00~24:00","18,00:00~24:00"
363,강원도,조양마을길 14-8 앞,노외,강원도 영월군 남면 연당리 937,37.1946126,128.4032312,강원도 영월군청,033-370-2356,무료이용,"14,00:00~24:00","15,00:00~24:00","16,00:00~24:00","17,00:00~24:00","18,00:00~24:00"
364,강원도,조양마을길 10-5 앞,노외,강원도 영월군 남면 연당리 937,37.1946126,128.4032312,강원도 영월군청,033-370-2356,무료이용,"14,00:00~24:00","15,00:00~24:00","16,00:00~24:00","17,00:00~24:00","18,00:00~24:00"
365,강원도,조양마을길 29-1 앞,노외,강원도 영월군 남면 연당리 937,37.1946126,128.4032312,강원도 영월군청,033-370-2356,무료이용,"14,00:00~24:00","15,00:00~24:00","16,00:00~24:00","17,00:00~24:00","18,00:00~24:00"
366,강원도,조양마을길 27-1 옆,노외,강원도 영월군 남면 연당리 937,37.1946126,128.4032312,강원도 영월군청,033-370-2356,무료이용,"14,00:00~24:00","15,00:00~24:00","16,00:00~24:00","17,00:00~24:00","18,00:00~24:00"
367,강원도,조양마을길 35 옆,노외,강원도 영월군 남면 연당리 937,37.1946126,128.4032312,강원도 영월군청,033-370-2356,무료이용,"14,00:00~24:00","15,00:00~24:00","16,00:00~24:00","17,00:00~24:00","18,00:00~24:00"
368,강원도,조양마을길 19 앞,노외,강원도 영월군 남면 연당리 937,37.1946126,128.4032312,강원도 영월군청,033-370-2356,무료이용,"14,00:00~24:00","15,00:00~24:00","16,00:00~24:00","17,00:00~24:00","18,00:00~24:00"
369,강원도,조양마을 상가 앞,노외,강원도 영월군 남면 연당리 939-1,37.1945167,128.4028027,강원도 영월군청,033-370-2356,무료이용,"14,00:00~24:00","15,00:00~24:00","16,00:00~24:00","17,00:00~24:00","18,00:00~24:00"
370,강원도,연당로 39(도로변),노외,강원도 영월군 남면 연당리 1035-8,37.1857493,128.4042496,강원도 영월군청,033-370-2356,무료이용,"14,00:00~24:00","15,00:00~24:00","16,00:00~24:00","17,00:00~24:00","18,00:00~24:00"
371,강원도,배일치재 쉼터,노외,강원도 영월군 남면 북쌍리 243-2,37.1985798,128.4038832,강원도 영월군청,033-370-2356,무료이용,"14,00:00~24:00","15,00:00~24:00","16,00:00~24:00","17,00:00~24:00","18,00:00~24:00"
372,강원도,한반도지형 주차장,노외,강원도 영월군 한반도면 옹정리 129-6,37.2248413,128.3513942,강원도 영월군청,033-370-2356,무료이용,"14,00:00~24:00","15,00:00~24:00","16,00:00~24:00","17,00:00~24:00","18,00:00~24:00"
373,강원도,뗏목체험 주차장,노외,강원도 영월군 한반도면 옹정리 512,37.2221086,128.3480877,강원도 영월군청,033-370-2356,무료이용,"14,00:00~24:00","15,00:00~24:00","16,00:00~24:00","17,00:00~24:00","18,00:00~24:00"
374,강원도,신천 복개 주차장,노외,강원도 영월군 한반도면 신천리 470-4,37.2356022,128.3281191,강원도 영월군청,033-370-2356,무료이용,"14,00:00~24:00","15,00:00~24:00","16,00:00~24:00","17,00:00~24:00","18,00:00~24:00"
375,강원도,쌍용감리교회 인근,노외,강원도 영월군 한반도면 쌍용리 450-7,37.1813795,128.3249337,강원도 영월군청,033-370-2356,무료이용,"14,00:00~24:00","15,00:00~24:00","16,00:00~24:00","17,00:00~24:00","18,00:00~24:00"
376,강원도,쌍용복지타운 공영주차장,노외,강원도 영월군 한반도면 쌍용리 454-12,37.177643,128.3267432,강원도 영월군청,033-370-2356,무료이용,"14,00:00~24:00","15,00:00~24:00","16,00:00~24:00","17,00:00~24:00","18,00:00~24:00"
377,강원도,쌍용역 밑 공영주차장,노외,강원도 영월군 한반도면 쌍용리 490-1,37.1747572,128.3278591,강원도 영월군청,033-370-2356,무료이용,"14,00:00~24:00","15,00:00~24:00","16,00:00~24:00","17,00:00~24:00","18,00:00~24:00"
378,강원도,쌍용중학교 입구 다리 밑(공영),노외,강원도 영월군 한반도면 쌍용리 901-5,37.1781446,128.3172607,강원도 영월군청,033-370-2356,무료이용,"14,00:00~24:00","15,00:00~24:00","16,00:00~24:00","17,00:00~24:00","18,00:00~24:00"
379,강원도,제4공영주차장,노외,강원도 영월군 주천면 주천리 895-1,37.2718891,128.2664711,강원도 영월군청,033-370-2356,무료이용,"14,00:00~24:00","15,00:00~24:00","16,00:00~24:00","17,00:00~24:00","18,00:00~24:00"
380,강원도,주천 전통시장 주차장,노외,강원도 영월군 주천면 주천리 897-17,37.271255,128.2663448,강원도 영월군청,033-370-2356,무료이용,"14,00:00~24:00","15,00:00~24:00","16,00:00~24:00","17,00:00~24:00","18,00:00~24:00"
381,강원도,제3공영주차장,노외,강원도 영월군 주천면 주천리 897-17,37.271255,128.2663448,강원도 영월군청,033-370-2356,무료이용,"14,00:00~24:00","15,00:00~24:00","16,00:00~24:00","17,00:00~24:00","18,00:00~24:00"
382,강원도,주천리 1124-3 인근,노외,강원도 영월군 주천면 주천리 1124-3,37.2682266,128.2678495,강원도 영월군청,033-370-2356,무료이용,"14,00:00~24:00","15,00:00~24:00","16,00:00~24:00","17,00:00~24:00","18,00:00~24:00"
383,강원도,제1공영주차장,노외,강원도 영월군 주천면 주천리 1137-2,37.2691155,128.2672641,강원도 영월군청,033-370-2356,무료이용,"14,00:00~24:00","15,00:00~24:00","16,00:00~24:00","17,00:00~24:00","18,00:00~24:00"
384,강원도,공영주차장,노외,강원도 영월군 주천면 주천리 1232-4,37.2709397,128.2666921,강원도 영월군청,033-370-2356,무료이용,"14,00:00~24:00","15,00:00~24:00","16,00:00~24:00","17,00:00~24:00","18,00:00~24:00"
385,강원도,제2공영주차장,노외,강원도 영월군 주천면 주천리 1266-9,37.2699998,128.2679133,강원도 영월군청,033-370-2356,무료이용,"14,00:00~24:00","15,00:00~24:00","16,00:00~24:00","17,00:00~24:00","18,00:00~24:00"
386,강원도,판운쉼터 앞,노외,강원도 영월군 주천면 판운리 448-5,37.2846119,128.3352855,강원도 영월군청,033-370-2356,무료이용,"14,00:00~24:00","15,00:00~24:00","16,00:00~24:00","17,00:00~24:00","18,00:00~24:00"
387,강원도,장충약수터,노외,강원도 영월군 주천면 판운리 1370-1,37.2883412,128.324078,강원도 영월군청,033-370-2356,무료이용,"14,00:00~24:00","15,00:00~24:00","16,00:00~24:00","17,00:00~24:00","18,00:00~24:00"
388,강원도,금마 독림만세공원,노외,강원도 영월군 주천면 금마리 394-1,37.2378598,128.2616858,강원도 영월군청,033-370-2356,무료이용,"14,00:00~24:00","15,00:00~24:00","16,00:00~24:00","17,00:00~24:00","18,00:00~24:00"
389,강원도,구봉산휴게소,노외,강원도 영월군 수주면 법흥리 966-6,37.3653104,128.2721275,강원도 영월군청,033-370-2356,무료이용,"14,00:00~24:00","15,00:00~24:00","16,00:00~24:00","17,00:00~24:00","18,00:00~24:00"
390,강원도,학산천부녀회,노외,강원도 영월군 수주면 운학리 823-4,37.3282134,128.1907549,강원도 영월군청,033-370-2356,무료이용,"14,00:00~24:00","15,00:00~24:00","16,00:00~24:00","17,00:00~24:00","18,00:00~24:00"
391,강원도,버스승강장 인근,노외,강원도 영월군 수주면 운학리 852-8,37.326385,128.190247,강원도 영월군청,033-370-2356,무료이용,"14,00:00~24:00","15,00:00~24:00","16,00:00~24:00","17,00:00~24:00","18,00:00~24:00"
392,강원도,운학2리 입구,노외,강원도 영월군 수주면 운학리 1172,37.3415909,128.1920505,강원도 영월군청,033-370-2356,무료이용,"14,00:00~24:00","15,00:00~24:00","16,00:00~24:00","17,00:00~24:00","18,00:00~24:00"
393,강원도,운학3리 경로당 앞,노외,강원도 영월군 수주면 운학리 1454-4,37.3732583,128.189366,강원도 영월군청,033-370-2356,무료이용,"14,00:00~24:00","15,00:00~24:00","16,00:00~24:00","17,00:00~24:00","18,00:00~24:00"
394,강원도,횡성군청노외주차장,부설,강원도 횡성군 황성읍 읍하리 68,37.491336,127.985873,강원도 횡성군청,033-340-2276,,"14,00:00~24:00","15,00:00~24:00","16,00:00~24:00","17,00:00~24:00","18,00:00~24:00"
395,강원도,횡성군청청사주차장,부설,강원도 횡성군 황성읍 읍하리 58-1,37.491705,127.985025,강원도 횡성군청,033-340-2276,,"14,00:00~24:00","15,00:00~24:00","16,00:00~24:00","17,00:00~24:00","18,00:00~24:00"
396,강원도,횡성읍사무소 주차장,부설,강원도 횡성군 횡성읍 태기로 85,37.492606,127.992557,횡성읍사무소,033-340-2601,,"14,00:00~24:00","15,00:00~24:00","16,00:00~24:00","17,00:00~24:00","18,00:00~24:00"
397,강원도,우천면사무소 주차장,부설,강원도 횡성군 우천면 우항1길 5-30,37.459437,128.062384,우천면사무소,033-340-2602,,"14,00:00~24:00","15,00:00~24:00","16,00:00~24:00","17,00:00~24:00","18,00:00~24:00"
398,강원도,안흥면사무소 주차장,부설,강원도 횡성군 안흥면 안흥로 27,37.41247,128.156051,안흥면사무소,033-340-2603,,"14,00:00~24:00","15,00:00~24:00","16,00:00~24:00","17,00:00~24:00","18,00:00~24:00"
399,강원도,둔내면사무소 주차장,부설,강원도 횡성군 둔내면 둔내로51번길 17,37.51197,128.218284,둔내면사무소,033-340-2604,,"14,00:00~24:00","15,00:00~24:00","16,00:00~24:00","17,00:00~24:00","18,00:00~24:00"
400,강원도,갑천면사무소 주차장,부설,강원도 횡성군 갑천면 청정로 295,37.560945,128.110221,갑천면사무소,033-340-2605,,"14,00:00~24:00","15,00:00~24:00","16,00:00~24:00","17,00:00~24:00","18,00:00~24:00"
401,강원도,청일면사무소 주차장,부설,강원도 횡성군 청일면 유동로 17,37.58349,128.150422,청일면사무소,033-340-2606,,"14,00:00~24:00","15,00:00~24:00","16,00:00~24:00","17,00:00~24:00","18,00:00~24:00"
402,강원도,공근면사무소 주차장,부설,강원도 횡성군 공근면 학담시장길 11,37.536418,127.961725,공근면사무소,033-340-2607,,"14,00:00~24:00","15,00:00~24:00","16,00:00~24:00","17,00:00~24:00","18,00:00~24:00"
403,강원도,서원면사무소 주차장,부설,강원도 횡성군 서원면 서원로 161,37.360248,128.125364,서원면사무소,033-340-2608,,"14,00:00~24:00","15,00:00~24:00","16,00:00~24:00","17,00:00~24:00","18,00:00~24:00"
404,강원도,강림면사무소 주차장,부설,강원도 횡성군 강림면 태종로 42,37.36024,128.1254,강림면사무소,033-340-2669,,"14,00:00~24:00","15,00:00~24:00","16,00:00~24:00","17,00:00~24:00","18,00:00~24:00"
405,강원도,횡성군보건소,부설,강원도 횡성군 횡성읍 횡성로 379 ,37.492682,127.993092,횡성군 보건소,033-340-5613,,"14,00:00~24:00","15,00:00~24:00","16,00:00~24:00","17,00:00~24:00","18,00:00~24:00"
406,강원도,강원도 횡성군농업기술센터,부설,강원도 횡성군 공근면 영서로150,37.52887,127.961389,강원도 횡성군농업기술센터,033-340-5513,,"14,09:00~18:00","15,09:00~18:00","16,09:00~18:00","17,09:00~18:00","18,09:00~18:00"
407,강원도,생활체육공원 ,부설,강원도 횡성군 횡성읍 문화체육로 47,37.497954,127.987872,시설관리사업소,033-340-5957,,"14,00:00~24:00","15,00:00~24:00","16,00:00~24:00","17,00:00~24:00","18,00:00~24:00"
408,강원도,둔내종합체육공원,부설,강원도 쇵성군 둔내면 경강로 4708,37.516925,128.213756,둔내면사무소,033-340-2704,,"14,00:00~24:00","15,00:00~24:00","16,00:00~24:00","17,00:00~24:00","18,00:00~24:00"
409,강원도,문화체육공원,부설,강원도 횡성군 횡성읍 문예로 75,37.490222,127.976821,시설관리사업소,033-340-5958,,"14,00:00~24:00","15,00:00~24:00","16,00:00~24:00","17,00:00~24:00","18,00:00~24:00"
410,강원도,레포츠공원,부설,강원도 횡성군 횡성읍 덕고마을1길 12,37.468531,128.021272,시설관리사업소,033-340-5951,,"14,00:00~24:00","15,00:00~24:00","16,00:00~24:00","17,00:00~24:00","18,00:00~24:00"
411,강원도,강원식당~대왕크리닝,노상,강원도 횡성군 횡성읍 읍하리 89-19 외,37.4909827,127.9847063,강원도 횡성군청,033-343-9092,,"14,00:00~24:00","15,00:00~24:00","16,00:00~24:00","17,00:00~24:00","18,00:00~24:00"
412,강원도,엄지슈퍼~서원인쇄기획,노상,강원도 횡성군 횡성읍 읍하리 86-4 외,37.4906196,127.985083,강원도 횡성군청,033-343-9092,,"14,00:00~24:00","15,00:00~24:00","16,00:00~24:00","17,00:00~24:00","18,00:00~24:00"
413,강원도,여주슈퍼~홍미용실,노상,강원도 횡성군 횡성읍 읍하리 75-6 외,37.4909657,127.9861991,강원도 횡성군청,033-343-9092,,"14,00:00~24:00","15,00:00~24:00","16,00:00~24:00","17,00:00~24:00","18,00:00~24:00"
414,강원도,여주슈퍼~농협군지부,노상,강원도 횡성군 횡성읍 읍하리 73-7 외,37.4906287,127.9864502,강원도 횡성군청,033-343-9092,,"14,00:00~24:00","15,00:00~24:00","16,00:00~24:00","17,00:00~24:00","18,00:00~24:00"
415,강원도,한백축산~원산구이,노상,강원도 횡성군 횡성읍 읍하리 377-18 외,37.4941144,127.9816093,강원도 횡성군청,033-343-9092,,"14,00:00~24:00","15,00:00~24:00","16,00:00~24:00","17,00:00~24:00","18,00:00~24:00"
416,강원도,한성막국수~북천로터리,노상,강원도 횡성군 횡성읍 읍하리 346-2 외,37.4935703,127.9824836,강원도 횡성군청,033-343-9092,,"14,00:00~24:00","15,00:00~24:00","16,00:00~24:00","17,00:00~24:00","18,00:00~24:00"
417,강원도,영재스포츠~성심건강원,노상,강원도 횡성군 횡성읍 읍하리 134-39 외,37.4902996,127.9844125,강원도 횡성군청,033-343-9092,,"14,00:00~24:00","15,00:00~24:00","16,00:00~24:00","17,00:00~24:00","18,00:00~24:00"
418,강원도,보금자리~청우축산,노상,강원도 횡성군 횡성읍 읍하리 112-18 외,37.4898132,127.9856158,강원도 횡성군청,033-343-9092,,"14,00:00~24:00","15,00:00~24:00","16,00:00~24:00","17,00:00~24:00","18,00:00~24:00"
419,강원도,등기소앞~만능철물건재,노상,강원도 횡성군 횡성읍 읍하리 344-2 외,37.493373,127.9830355,강원도 횡성군청,033-343-9092,,"14,00:00~24:00","15,00:00~24:00","16,00:00~24:00","17,00:00~24:00","18,00:00~24:00"
420,강원도,사러가과일~로터리슈퍼,노상,강원도 횡성군 횡성읍 읍하리 386-44 외,37.4941337,127.9843574,강원도 횡성군청,033-343-9092,,"14,00:00~24:00","15,00:00~24:00","16,00:00~24:00","17,00:00~24:00","18,00:00~24:00"
421,강원도,북천로터리~타이거스포츠,노상,강원도 횡성군 횡성읍 읍하리 384-10 외,37.4890679,127.9790265,강원도 횡성군청,033-343-9092,,"14,00:00~24:00","15,00:00~24:00","16,00:00~24:00","17,00:00~24:00","18,00:00~24:00"
422,강원도,일성당약국~삼천리자전거,노상,강원도 횡성군 횡성읍 읍상리 573-18 외,37.4878077,127.9890436,강원도 횡성군청,033-342-2389,,"14,00:00~24:00","15,00:00~24:00","16,00:00~24:00","17,00:00~24:00","18,00:00~24:00"
423,강원도,(구)극장주차장,노외,강원도 횡성군 횡성읍 읍하리 119-1,37.4880731,127.9850077,강원도 횡성군청,033-340-2243,,"14,00:00~24:00","15,00:00~24:00","16,00:00~24:00","17,00:00~24:00","18,00:00~24:00"
424,강원도,읍상주차장(1),노외,강원도 횡성군 횡성읍 읍상리 541-11,37.4885447,127.9874762,강원도 횡성군청,033-340-2243,,"14,00:00~24:00","15,00:00~24:00","16,00:00~24:00","17,00:00~24:00","18,00:00~24:00"
425,강원도,읍상주차장(2),노외,강원도 횡성군 횡성읍 읍상리 514-2 외,37.4884303,127.9878641,강원도 횡성군청,033-340-2243,,"14,00:00~24:00","15,00:00~24:00","16,00:00~24:00","17,00:00~24:00","18,00:00~24:00"
426,강원도,입석리주차장,노외,강원도 횡성군 횡성읍 입석리 90-2 외,37.479651,127.9811696,강원도 횡성군청,033-340-2243,,"14,00:00~24:00","15,00:00~24:00","16,00:00~24:00","17,00:00~24:00","18,00:00~24:00"
427,강원도,읍하택지주차장(1),노외,강원도 횡성군 횡성읍 읍하리 538,37.4934161,127.9892113,강원도 횡성군청,033-340-2243,,"14,00:00~24:00","15,00:00~24:00","16,00:00~24:00","17,00:00~24:00","18,00:00~24:00"
428,강원도,읍하택지주차장(2),노외,강원도 횡성군 횡성읍 읍하리 526-1,37.495092,127.9880858,강원도 횡성군청,033-340-2243,,"14,00:00~24:00","15,00:00~24:00","16,00:00~24:00","17,00:00~24:00","18,00:00~24:00"
429,강원도,만세공원주차장,노외,강원도 횡성군 횡성읍 읍상리 545,37.4881913,127.9865479,강원도 횡성군청,033-340-2243,,"14,00:00~24:00","15,00:00~24:00","16,00:00~24:00","17,00:00~24:00","18,00:00~24:00"
430,강원도,앞뜰 공영주차장,노외,강원도 횡성군 횡성읍 읍상리 674,37.4864251,127.9853756,강원도 횡성군청,033-340-2243,,"14,00:00~24:00","15,00:00~24:00","16,00:00~24:00","17,00:00~24:00","18,00:00~24:00"
431,강원도,횡성문화원주차장,노외,강원도 횡성군 횡성읍 읍하리 424-1 외,37.4864852,127.9834521,강원도 횡성군청,033-340-2243,,"14,00:00~24:00","15,00:00~24:00","16,00:00~24:00","17,00:00~24:00","18,00:00~24:00"
432,강원도,우천공영주차장,노외,강원도 횡성군 우천면 우항리 583-2 외,37.4598679,128.0642751,강원도 횡성군청,033-340-2243,,"14,00:00~24:00","15,00:00~24:00","16,00:00~24:00","17,00:00~24:00","18,00:00~24:00"
433,강원도,안흥공영주차장,노상,강원도 횡성군 안흥면 안흥리 302-1 외,37.4131796,128.1581008,강원도 횡성군청,033-340-2243,,"14,00:00~24:00","15,00:00~24:00","16,00:00~24:00","17,00:00~24:00","18,00:00~24:00"
434,강원도,둔내공영주차장(1),노상,강원도 횡성군 둔내면 둔방내리 586-7 외,37.5136364,128.210714,강원도 횡성군청,033-340-2243,,"14,00:00~24:00","15,00:00~24:00","16,00:00~24:00","17,00:00~24:00","18,00:00~24:00"
435,강원도,둔내공영주차장(2),노상,강원도 횡성군 둔내면 자포곡리 414-5 외,37.5113418,128.2183587,강원도 횡성군청,033-340-2243,,"14,00:00~24:00","15,00:00~24:00","16,00:00~24:00","17,00:00~24:00","18,00:00~24:00"
436,강원도,공근공영주차장,노상,강원도 횡성군 공근면 학담리 58-2 외,37.5359616,127.9627793,강원도 횡성군청,033-340-2243,,"14,00:00~24:00","15,00:00~24:00","16,00:00~24:00","17,00:00~24:00","18,00:00~24:00"
437,강원도,서원공영주차장,노외,강원도 횡성군 서원면 창촌리 806-2 외,37.4865909,127.8505344,강원도 횡성군청,033-340-2243,,"14,00:00~24:00","15,00:00~24:00","16,00:00~24:00","17,00:00~24:00","18,00:00~24:00"
438,강원도,천변리 주차장,노외,강원도 평창군 평창읍 천변리 11-2 외,37.366144,128.3983207,강원도 평창군청,033-330-2048,무료,"14,00:00~24:00","15,00:00~24:00","16,00:00~24:00","17,00:00~24:00","18,00:00~24:00"
439,강원도,평창 중리 주차장,노외,강원도 평창군 평창읍 중리 99-6,37.3688125,128.4037992,강원도 평창군청,033-330-2048,무료,"14,00:00~24:00","15,00:00~24:00","16,00:00~24:00","17,00:00~24:00","18,00:00~24:00"
440,강원도,노인회관 주차장,노외,강원도 평창군 평창읍 하리 145-3,37.3682345,128.3948453,강원도 평창군청,033-330-2048,무료,"14,00:00~24:00","15,00:00~24:00","16,00:00~24:00","17,00:00~24:00","18,00:00~24:00"
441,강원도,터미널 뒤 주차장,노외,강원도 평창군 평창읍 하리 58-51,37.3665648,128.3934671,강원도 평창군청,033-330-2048,무료,"14,00:00~24:00","15,00:00~24:00","16,00:00~24:00","17,00:00~24:00","18,00:00~24:00"
442,강원도,방범대 앞 주차장,노외,강원도 평창군 평창읍 중리 316-1,37.3674683,128.3984248,강원도 평창군청,033-330-2048,무료,"14,00:00~24:00","15,00:00~24:00","16,00:00~24:00","17,00:00~24:00","18,00:00~24:00"
443,강원도,소방서앞 주차장,노외,강원도 평창군 평창읍 중리 361,37.367545,128.3981068,강원도 평창군청,033-330-2048,무료,"14,00:00~24:00","15,00:00~24:00","16,00:00~24:00","17,00:00~24:00","18,00:00~24:00"
444,강원도,평창교회앞 주차장,노외,강원도 평창군 평창읍 중리 316-9,37.367001,128.3982925,강원도 평창군청,033-330-2048,무료,"14,00:00~24:00","15,00:00~24:00","16,00:00~24:00","17,00:00~24:00","18,00:00~24:00"
445,강원도,노성산 주차장,노외,강원도 평창군 평창읍 하리 19,37.3723105,128.397424,강원도 평창군청,033-330-2048,무료,"14,00:00~24:00","15,00:00~24:00","16,00:00~24:00","17,00:00~24:00","18,00:00~24:00"
446,강원도,청옥막국수옆주차장,노외,강원도 평창군 평창읍 하리 70-13,37.3671214,128.3922045,강원도 평창군청,033-330-2048,무료,"14,00:00~24:00","15,00:00~24:00","16,00:00~24:00","17,00:00~24:00","18,00:00~24:00"
447,강원도,백오아파트 뒤 추차장,노외,강원도 평창군 평창읍 중리 80-1,37.368084,128.4020566,강원도 평창군청,033-330-2048,무료,"14,00:00~24:00","15,00:00~24:00","16,00:00~24:00","17,00:00~24:00","18,00:00~24:00"
448,강원도,시루목주차장,노외,강원도 평창군 평창읍 하리 179-9,37.3721154,128.3951401,강원도 평창군청,033-330-2048,무료,"14,00:00~24:00","15,00:00~24:00","16,00:00~24:00","17,00:00~24:00","18,00:00~24:00"
449,강원도,마하리 주차장,노외,강원도 평창군 미탄 마하리 339-1,37.2925022,128.5435051,강원도 평창군청,033-330-2048,무료,"14,00:00~24:00","15,00:00~24:00","16,00:00~24:00","17,00:00~24:00","18,00:00~24:00"
450,강원도,미탄주차장,노외,강원도 평창군 미탄 창리 709,37.3413053,128.4994723,강원도 평창군청,033-330-2048,무료,"14,00:00~24:00","15,00:00~24:00","16,00:00~24:00","17,00:00~24:00","18,00:00~24:00"
451,강원도,미탄초교옆 주차장,노외,강원도 평창군 미탄면 창리 775,37.3413863,128.5007571,강원도 평창군청,033-330-2048,무료,"14,00:00~24:00","15,00:00~24:00","16,00:00~24:00","17,00:00~24:00","18,00:00~24:00"
452,강원도,보건지소 앞 주차장,노외,강원도 평창군 미탄면 창리 718-1,37.3405277,128.4998711,강원도 평창군청,033-330-2048,무료,"14,00:00~24:00","15,00:00~24:00","16,00:00~24:00","17,00:00~24:00","18,00:00~24:00"
453,강원도,계촌주차장,노외,강원도 평창군 방림 계촌리 2070-1,37.4503776,128.3052361,강원도 평창군청,033-330-2048,무료,"14,00:00~24:00","15,00:00~24:00","16,00:00~24:00","17,00:00~24:00","18,00:00~24:00"
454,강원도,방림1주차장,노외,강원도 평창군 방림 방림리 1281,37.426638,128.3929542,강원도 평창군청,033-330-2048,무료,"14,00:00~24:00","15,00:00~24:00","16,00:00~24:00","17,00:00~24:00","18,00:00~24:00"
455,강원도,대화터미널 옆 주차장,노외,강원도 평창군 대화 대화리 1012-14,37.5008185,128.4529236,강원도 평창군청,033-330-2048,무료,"14,00:00~24:00","15,00:00~24:00","16,00:00~24:00","17,00:00~24:00","18,00:00~24:00"
456,강원도,문화마을 주차장,노외,강원도 평창군 대화 대화리 1958,37.4898204,128.4549187,강원도 평창군청,033-330-2048,무료,"14,00:00~24:00","15,00:00~24:00","16,00:00~24:00","17,00:00~24:00","18,00:00~24:00"
457,강원도,면사무소앞 주차장,노외,강원도 평창군 대화 대화리 1171,37.5007598,128.4574087,강원도 평창군청,033-330-2048,무료,"14,00:00~24:00","15,00:00~24:00","16,00:00~24:00","17,00:00~24:00","18,00:00~24:00"
458,강원도,대화체육관옆 주차장,노외,강원도 평창군 대화 대화리 979-2,37.4981442,128.4566531,강원도 평창군청,033-330-2048,무료,"14,00:00~24:00","15,00:00~24:00","16,00:00~24:00","17,00:00~24:00","18,00:00~24:00"
459,강원도,대화고등학교앞,노외,강원도 평창군 대화 대화리 857-1 외,37.4926718,128.4571536,강원도 평창군청,033-330-2048,무료,"14,00:00~24:00","15,00:00~24:00","16,00:00~24:00","17,00:00~24:00","18,00:00~24:00"
460,강원도,자율방범대사무실 옆,노외,강원도 평창군 봉평면 창동리 436-25,37.6159139,128.3747141,강원도 평창군청,033-330-2048,무료,"14,00:00~24:00","15,00:00~24:00","16,00:00~24:00","17,00:00~24:00","18,00:00~24:00"
461,강원도,면사무소옆 주차장,노외,강원도 평창군 봉평 창동리 362-2,37.6162492,128.3786567,강원도 평창군청,033-330-2048,무료,"14,00:00~24:00","15,00:00~24:00","16,00:00~24:00","17,00:00~24:00","18,00:00~24:00"
462,강원도,계방산 주차장,노외,강원도 평창군 용평 노동리 159,37.6909522,128.4693269,강원도 평창군청,033-330-2048,무료,"14,00:00~24:00","15,00:00~24:00","16,00:00~24:00","17,00:00~24:00","18,00:00~24:00"
463,강원도,오대천둔치주차장,노외,강원도 평창군 진부 하진부리 110-2,37.6356917,128.5588696,강원도 평창군청,033-330-2048,무료,"14,00:00~24:00","15,00:00~24:00","16,00:00~24:00","17,00:00~24:00","18,00:00~24:00"
464,강원도,송정택지 주차장,노외,강원도 평창군 진부 송정리 2535-1,37.6326614,128.5605894,강원도 평창군청,033-330-2048,무료,"14,00:00~24:00","15,00:00~24:00","16,00:00~24:00","17,00:00~24:00","18,00:00~24:00"
465,강원도,태백주유소 뒤 주차장,노외,강원도 평창군 진부 하진부리 1289-23,37.6390066,128.5609646,강원도 평창군청,033-330-2048,무료,"14,00:00~24:00","15,00:00~24:00","16,00:00~24:00","17,00:00~24:00","18,00:00~24:00"
466,강원도,송정택지 주차장,노외,강원도 평창군 진부 송정리 2516-1,37.6351793,128.5618388,강원도 평창군청,033-330-2048,무료,"14,00:00~24:00","15,00:00~24:00","16,00:00~24:00","17,00:00~24:00","18,00:00~24:00"
467,강원도,진부고 앞 주차장,노외,강원도 평창군 진부 하진부리 163-1,37.6361377,128.5533244,강원도 평창군청,033-330-2048,무료,"14,00:00~24:00","15,00:00~24:00","16,00:00~24:00","17,00:00~24:00","18,00:00~24:00"
468,강원도,LH주공아파트 뒤,노외,강원도 평창군 진부 하진부리 123-1,37.6356712,128.5574883,강원도 평창군청,033-330-2048,무료,"14,00:00~24:00","15,00:00~24:00","16,00:00~24:00","17,00:00~24:00","18,00:00~24:00"
469,강원도,진부초교 앞,노외,강원도 평창군 진부 하진부리 206-11,37.638527,128.5577804,강원도 평창군청,033-330-2048,무료,"14,00:00~24:00","15,00:00~24:00","16,00:00~24:00","17,00:00~24:00","18,00:00~24:00"
470,강원도,구터미널주차장,노외,강원도 평창군 진부 하진부리 2016-131,37.63235,128.5400924,강원도 평창군청,033-330-2048,무료,"14,00:00~24:00","15,00:00~24:00","16,00:00~24:00","17,00:00~24:00","18,00:00~24:00"
471,강원도,대관령숯불갈비앞,노외,강원도 평창군 대관령 횡계리 325-43,37.672585,128.7084932,강원도 평창군청,033-330-2048,무료,"14,00:00~24:00","15,00:00~24:00","16,00:00~24:00","17,00:00~24:00","18,00:00~24:00"
472,강원도,횡계10리 마을회관앞,노외,강원도 평창군 대관령 횡계리 331-47,37.6734502,128.7095012,강원도 평창군청,033-330-2048,무료,"14,00:00~24:00","15,00:00~24:00","16,00:00~24:00","17,00:00~24:00","18,00:00~24:00"
473,강원도,대관령 환승주차장,노외,강원도 평창군 대관령면 횡계리 산 116,37.6761141,128.7270413,강원도 평창군청,033-330-2048,무료,"14,00:00~24:00","15,00:00~24:00","16,00:00~24:00","17,00:00~24:00","18,00:00~24:00"
474,강원도,IB관광호텔 옆(노상),노상,강원도 정선군 남면 무릉리 819-16,37.245089,128.776491,강원도 정선군청,033-560-2512,,"14,00:00~24:00","15,00:00~24:00","16,00:00~24:00","17,00:00~24:00","18,00:00~24:00"
475,강원도,강원랜드사무실 옆(우측),노외,강원도 정선군 고한읍 고한리 274-12,38.104996,128.313489,강원도 정선군청,033-560-2512,,"14,00:00~24:00","15,00:00~24:00","16,00:00~24:00","17,00:00~24:00","18,00:00~24:00"
476,강원도,강원랜드사무실 옆(좌측),노외,강원도 정선군 고한읍 고한리274-13,38.105587,128.31415,강원도 정선군청,033-560-2512,,"14,00:00~24:00","15,00:00~24:00","16,00:00~24:00","17,00:00~24:00","18,00:00~24:00"
477,강원도,고한 제1공영주차장(신라장 앞),노외,강원도 정선군 고한읍 고한리 96-76,38.105182,128.241653,강원도 정선군청,033-560-2512,,"14,00:00~24:00","15,00:00~24:00","16,00:00~24:00","17,00:00~24:00","18,00:00~24:00"
478,강원도,고한 제2공영주차장(구. 고한초교위),노외,강원도 정선군 고한읍 고한리 104-60,38.105503,128.261064,강원도 정선군청,033-560-2512,,"14,00:00~24:00","15,00:00~24:00","16,00:00~24:00","17,00:00~24:00","18,00:00~24:00"
479,강원도,고한 제3공영주차장(카지노입구),노외,강원도 정선군 고한읍 고한리 120-5,38.105409,128.31324,강원도 정선군청,033-560-2512,,"14,00:00~24:00","15,00:00~24:00","16,00:00~24:00","17,00:00~24:00","18,00:00~24:00"
480,강원도,고한사북 버스터미널 위,노외,강원도 정선군 고한읍 고한리 산89-1,38.106434,128.304454,강원도 정선군청,033-560-2512,,"14,00:00~24:00","15,00:00~24:00","16,00:00~24:00","17,00:00~24:00","18,00:00~24:00"
481,강원도,고한역앞 (철도청 임대),노외,강원도 정선군 고한읍 고한리 60-4,38.106054,128.312956,강원도 정선군청,033-560-2512,,"14,00:00~24:00","15,00:00~24:00","16,00:00~24:00","17,00:00~24:00","18,00:00~24:00"
482,강원도,공설운동장 주변 주차장,노외,강원도 정선군 정선읍 봉양리 114-1,38.102725,128.281038,강원도 정선군청,033-560-2512,,"14,00:00~24:00","15,00:00~24:00","16,00:00~24:00","17,00:00~24:00","18,00:00~24:00"
483,강원도,교육지원청 옆,노상,강원도 정선군 정선읍 봉양리 398-1,38.102295,128.271566,강원도 정선군청,033-560-2512,,"14,00:00~24:00","15,00:00~24:00","16,00:00~24:00","17,00:00~24:00","18,00:00~24:00"
484,강원도,구. 석탄회관 앞 공영주차장,노외,강원도 정선군 사북읍 사북리 354-2,38.108776,128.331016,강원도 정선군청,033-560-2512,,"14,00:00~24:00","15,00:00~24:00","16,00:00~24:00","17,00:00~24:00","18,00:00~24:00"
485,강원도,구룡동 입구 공영주차장,노외,강원도 정선군 신동읍 조동리 275-2,37.211482,128.66771,강원도 정선군청,033-560-2512,,"14,00:00~24:00","15,00:00~24:00","16,00:00~24:00","17,00:00~24:00","18,00:00~24:00"
486,강원도,남면농협 앞 주차장,노외,강원도 정선군 남면 문곡리 321-17,37.266734,128.739774,강원도 정선군청,033-560-2512,,"14,00:00~24:00","15,00:00~24:00","16,00:00~24:00","17,00:00~24:00","18,00:00~24:00"
487,강원도,남면사거리(철도건널목 옆) 주차장,노외,강원도 정선군 남면 문곡리 132-2,37.26751,128.740315,강원도 정선군청,033-560-2512,,"14,00:00~24:00","15,00:00~24:00","16,00:00~24:00","17,00:00~24:00","18,00:00~24:00"
488,강원도,남면주유소 위 주차장,노외,강원도 정선군 남면 문곡리 590-2,37.268092,128.742411,강원도 정선군청,033-560-2512,,"14,00:00~24:00","15,00:00~24:00","16,00:00~24:00","17,00:00~24:00","18,00:00~24:00"
489,강원도,녹송공원 주차장,노외,강원도 정선군 정선읍 봉양리 33-5,38.10288,128.275362,강원도 정선군청,033-560-2512,,"14,00:00~24:00","15,00:00~24:00","16,00:00~24:00","17,00:00~24:00","18,00:00~24:00"
490,강원도,농민체육센터 앞 공영주차장,노외,강원도 정선군 임계면 송계리 781-3,37.494037,128.851951,강원도 정선군청,033-560-2512,,"14,00:00~24:00","15,00:00~24:00","16,00:00~24:00","17,00:00~24:00","18,00:00~24:00"
491,강원도,동문회관~정선병원입구 구간,노상,강원도 정선군 정선읍 봉양리 283-4,38.104125,128.271864,강원도 정선군청,033-560-2512,,"14,00:00~24:00","15,00:00~24:00","16,00:00~24:00","17,00:00~24:00","18,00:00~24:00"
492,강원도,민둥산 교차로 옆(굴다리),노외,강원도 정선군 남면 무릉리 800-1,37.253958,128.780288,강원도 정선군청,033-560-2512,,"14,00:00~24:00","15,00:00~24:00","16,00:00~24:00","17,00:00~24:00","18,00:00~24:00"
493,강원도,민둥산 운동장 주변 주차장,노외,강원도 정선군 남면 무릉리 784-9,37.253154,128.776988,강원도 정선군청,033-560-2512,,"14,00:00~24:00","15,00:00~24:00","16,00:00~24:00","17,00:00~24:00","18,00:00~24:00"
494,강원도,민둥산역 밑(노상),노상,강원도 정선군 남면 무릉리 611-4,37.244294,128.774802,강원도 정선군청,033-560-2512,,"14,00:00~24:00","15,00:00~24:00","16,00:00~24:00","17,00:00~24:00","18,00:00~24:00"
495,강원도,별어곡역 앞 주차장,노외,강원도 정선군 남면 문곡리 127-14,37.269407,128.739908,강원도 정선군청,033-560-2512,,"14,00:00~24:00","15,00:00~24:00","16,00:00~24:00","17,00:00~24:00","18,00:00~24:00"
496,강원도,"봉양7리 제1,2공영주차장(중앙교회 옆)",노외,강원도 정선군 정선읍 봉양리 392-6,38.2432072,128.2081944,강원도 정선군청,033-560-2512,,"14,00:00~24:00","15,00:00~24:00","16,00:00~24:00","17,00:00~24:00","18,00:00~24:00"
497,강원도,북실리 현대아파트 옆 주차장,노외,강원도 정선군 정선읍 북실리 721,38.103563,128.275003,강원도 정선군청,033-560-2512,,"14,00:00~24:00","15,00:00~24:00","16,00:00~24:00","17,00:00~24:00","18,00:00~24:00"
498,강원도,사북 제일의원~사북주유소구간,노상,강원도 정선군 사북읍 사북리 372-10,37.227055,128.820112,강원도 정선군청,033-560-2512,,"14,00:00~24:00","15,00:00~24:00","16,00:00~24:00","17,00:00~24:00","18,00:00~24:00"
499,강원도,사북10리 경로당 앞 공영주차장,노외,강원도 정선군 사북읍 사북리 344-64,38.104071,128.6189,강원도 정선군청,033-560-2512,,"14,00:00~24:00","15,00:00~24:00","16,00:00~24:00","17,00:00~24:00","18,00:00~24:00"
500,강원도,사북5거리 공영주차장(2층),노외,강원도 정선군 사북읍 사북리 357,38.107528,128.333728,강원도 정선군청,033-560-2512,,"14,00:00~24:00","15,00:00~24:00","16,00:00~24:00","17,00:00~24:00","18,00:00~24:00"
501,강원도,사북신협 뒤 공영주차장,노외,강원도 정선군 사북읍 사북리 366-72,38.108237,128.332244,강원도 정선군청,033-560-2512,,"14,00:00~24:00","15,00:00~24:00","16,00:00~24:00","17,00:00~24:00","18,00:00~24:00"
502,강원도,사북역 맞은편 주차장(철도청 임대),노외,강원도 정선군 사북읍 사북리 310,37.225617,128.822766,강원도 정선군청,033-560-2512,,"14,00:00~24:00","15,00:00~24:00","16,00:00~24:00","17,00:00~24:00","18,00:00~24:00"
503,강원도,사북읍사무소 앞 주차장,노외,강원도 정선군 사북읍 사북리 317-36,38.106727,128.324384,강원도 정선군청,033-560-2512,,"14,00:00~24:00","15,00:00~24:00","16,00:00~24:00","17,00:00~24:00","18,00:00~24:00"
504,강원도,사북제1노상주차장(하천변 위쪽),노상,강원도 정선군 사북읍 사북리 452,37.230021,128.818314,강원도 정선군청,033-560-2512,,"14,00:00~24:00","15,00:00~24:00","16,00:00~24:00","17,00:00~24:00","18,00:00~24:00"
505,강원도,사북제2노상주차장(사북시장 뒤),노상,강원도 정선군 사북읍 사북리 452,37.230021,128.818314,강원도 정선군청,033-560-2512,,"14,00:00~24:00","15,00:00~24:00","16,00:00~24:00","17,00:00~24:00","18,00:00~24:00"
506,강원도,애산리 제재소 앞,노상,강원도 정선군 정선읍 애산리 415-103,38.106312,128.670607,강원도 정선군청,033-560-2512,,"14,00:00~24:00","15,00:00~24:00","16,00:00~24:00","17,00:00~24:00","18,00:00~24:00"
507,강원도,여량시장 주차장,노외,강원도 정선군 여량면 여량리 108-1,37.4714,128.724212,강원도 정선군청,033-560-2512,,"14,00:00~24:00","15,00:00~24:00","16,00:00~24:00","17,00:00~24:00","18,00:00~24:00"
508,강원도,역전 구. 보건소 앞,노상,강원도 정선군 정선읍 애산리 432-2024,38.105504,128.253281,강원도 정선군청,033-560-2512,,"14,00:00~24:00","15,00:00~24:00","16,00:00~24:00","17,00:00~24:00","18,00:00~24:00"
509,강원도,역전 국민체육센터 옆,노외,강원도 정선군 정선읍 애산리 432-442,38.102441,128.27909,강원도 정선군청,033-560-2512,,"14,00:00~24:00","15,00:00~24:00","16,00:00~24:00","17,00:00~24:00","18,00:00~24:00"
510,강원도,연세의원 옆,노상,강원도 정선군 정선읍 봉양리 357-35,38.103044,128.271854,강원도 정선군청,033-560-2512,,"14,00:00~24:00","15,00:00~24:00","16,00:00~24:00","17,00:00~24:00","18,00:00~24:00"
511,강원도,예미4리 공영주차장(신동학원 앞),노외,강원도 정선군 신동읍 예미리 718-6,37.215707,128.643467,강원도 정선군청,033-560-2512,,"14,00:00~24:00","15,00:00~24:00","16,00:00~24:00","17,00:00~24:00","18,00:00~24:00"
512,강원도,예미안경다리 옆 (철도청 임대),노외,강원도 정선군 신동읍 예미리 742-8,37.211451,128.645082,강원도 정선군청,033-560-2512,,"14,00:00~24:00","15,00:00~24:00","16,00:00~24:00","17,00:00~24:00","18,00:00~24:00"
513,강원도,예미역 옆 (철도청 임대),노외,강원도 정선군 신동읍 예미리 200-10,37.212512,128.649251,강원도 정선군청,033-560-2512,,"14,00:00~24:00","15,00:00~24:00","16,00:00~24:00","17,00:00~24:00","18,00:00~24:00"
514,강원도,용마소 하천변,노외,강원도 정선군 화암면 화암리 1108,37.340631,128.786029,강원도 정선군청,033-560-2512,,"14,00:00~24:00","15,00:00~24:00","16,00:00~24:00","17,00:00~24:00","18,00:00~24:00"
515,강원도,우회도로 노상,노상,강원도 정선군 화암면 화암리 354,37.337615,128.787893,강원도 정선군청,033-560-2512,,"14,00:00~24:00","15,00:00~24:00","16,00:00~24:00","17,00:00~24:00","18,00:00~24:00"
516,강원도,임계시장 주차장,노외,강원도 정선군 임계면 송계리 767-3,37.495096,128.851131,강원도 정선군청,033-560-2512,,"14,00:00~24:00","15,00:00~24:00","16,00:00~24:00","17,00:00~24:00","18,00:00~24:00"
517,강원도,정선공영주차장(조양연립앞),노외,강원도 정선군 정선읍 봉양리 143-7,38.2415797,128.3174683,강원도 정선군청,033-560-2512,,"14,00:00~24:00","15,00:00~24:00","16,00:00~24:00","17,00:00~24:00","18,00:00~24:00"
518,강원도,정선군의회 뒤 주차장,노외,강원도 정선군 정선읍 봉양리 221-1,38.102802,128.28363,강원도 정선군청,033-560-2512,,"14,00:00~24:00","15,00:00~24:00","16,00:00~24:00","17,00:00~24:00","18,00:00~24:00"
519,강원도,"정선군청, 예술회관 주변 주차장",노외,강원도 정선군 정선읍 봉양리 255-2,38.2364728,128.2600111,강원도 정선군청,033-560-2512,,"14,00:00~24:00","15,00:00~24:00","16,00:00~24:00","17,00:00~24:00","18,00:00~24:00"
520,강원도,정선역 앞,노상,강원도 정선군 정선읍 애산리 415-16,38.103098,128.2616,강원도 정선군청,033-560-2512,,"14,00:00~24:00","15,00:00~24:00","16,00:00~24:00","17,00:00~24:00","18,00:00~24:00"
521,강원도,정선향교 앞 공영주차장,노외,강원도 정선군 정선읍 봉양리 381-3,38.103139,128.281569,강원도 정선군청,033-560-2512,,"14,00:00~24:00","15,00:00~24:00","16,00:00~24:00","17,00:00~24:00","18,00:00~24:00"
522,강원도,조동4리 공영주차장,노외,강원도 정선군 신동읍 조동리 203,37.214829,128.668411,강원도 정선군청,033-560-2512,,"14,00:00~24:00","15,00:00~24:00","16,00:00~24:00","17,00:00~24:00","18,00:00~24:00"
523,강원도,조동7리 (용화동) 주차장,노외,강원도 정선군 신동읍 조동리 14-24,37.213867,128.688764,강원도 정선군청,033-560-2512,,"14,00:00~24:00","15,00:00~24:00","16,00:00~24:00","17,00:00~24:00","18,00:00~24:00"
524,강원도,함백우체국 앞 공영주차장,노외,강원도 정선군 신동읍 조동리 199-21,37.214779,128.669606,강원도 정선군청,033-560-2512,,"14,00:00~24:00","15,00:00~24:00","16,00:00~24:00","17,00:00~24:00","18,00:00~24:00"
525,강원도,화암우체국 옆,노외,강원도 정선군 화암면 화암리 376-1,37.339177,128.78805,강원도 정선군청,033-560-2512,,"14,00:00~24:00","15,00:00~24:00","16,00:00~24:00","17,00:00~24:00","18,00:00~24:00"
526,강원도,화암파출소 옆,노외,강원도 정선군 화암면 화암리 358-1,37.337953,128.788494,강원도 정선군청,033-560-2512,,"14,00:00~24:00","15,00:00~24:00","16,00:00~24:00","17,00:00~24:00","18,00:00~24:00"
527,강원도,화지리주차장(철원읍사무소),노외,강원도 철원군 철원읍 화지리 41-121,38.2116063,127.2143531,강원도 철원군청,033-450-4873,무료개방,"14,00:00~24:00","15,00:00~24:00","16,00:00~24:00","17,00:00~24:00","18,00:00~24:00"
528,강원도,복개천주차장 1,노외,강원도 철원군 철원읍 화지리 28-17,38.210538,127.2150589,강원도 철원군청,033-450-4873,무료개방,"14,00:00~24:00","15,00:00~24:00","16,00:00~24:00","17,00:00~24:00","18,00:00~24:00"
529,강원도,복개천주차장 2,노외,강원도 철원군 철원읍 화지리 1023,38.2109457,127.2179537,강원도 철원군청,033-450-4873,무료개방,"14,00:00~24:00","15,00:00~24:00","16,00:00~24:00","17,00:00~24:00","18,00:00~24:00"
530,강원도,복개천주차장 3,노외,강원도 철원군 철원읍 화지리 525-7,38.2081689,127.2093409,강원도 철원군청,033-450-4873,무료개방,"14,00:00~24:00","15,00:00~24:00","16,00:00~24:00","17,00:00~24:00","18,00:00~24:00"
531,강원도,화인빌라 앞,노외,강원도 철원군 철원읍 화지리 35-20,38.2150031,127.2134419,강원도 철원군청,033-450-4873,무료개방,"14,00:00~24:00","15,00:00~24:00","16,00:00~24:00","17,00:00~24:00","18,00:00~24:00"
532,강원도,철원농협주차장,노외,강원도 철원군 철원읍 화지리 30-21,38.213257,127.2143731,강원도 철원군청,033-450-4873,무료개방,"14,00:00~24:00","15,00:00~24:00","16,00:00~24:00","17,00:00~24:00","18,00:00~24:00"
533,강원도,산호아파트주차장,노외,강원도 철원군 철원읍 화지리 69-9,38.2130105,127.2098629,강원도 철원군청,033-450-4873,무료개방,"14,00:00~24:00","15,00:00~24:00","16,00:00~24:00","17,00:00~24:00","18,00:00~24:00"
534,강원도,철원중고주차장,노외,강원도 철원군 철원읍 화지리 52,38.2096273,127.2101039,강원도 철원군청,033-450-4873,무료개방,"14,00:00~24:00","15,00:00~24:00","16,00:00~24:00","17,00:00~24:00","18,00:00~24:00"
535,강원도,문화원앞주차장,노외,강원도 철원군 갈말읍 신철원리 684-2 외,38.1450151,127.3100874,강원도 철원군청,033-450-4873,무료개방,"14,00:00~24:00","15,00:00~24:00","16,00:00~24:00","17,00:00~24:00","18,00:00~24:00"
536,강원도,신철원시장주차장,노외,강원도 철원군 갈말읍 신철원리 718-3 외,38.1439979,127.3102476,강원도 철원군청,033-450-4873,무료개방,"14,00:00~24:00","15,00:00~24:00","16,00:00~24:00","17,00:00~24:00","18,00:00~24:00"
537,강원도,하나로마트주차장,노외,강원도 철원군 갈말읍 신철원리 600-19,38.1460556,127.3106869,강원도 철원군청,033-450-4873,무료개방,"14,00:00~24:00","15,00:00~24:00","16,00:00~24:00","17,00:00~24:00","18,00:00~24:00"
538,강원도,문혜리시장주차장,노외,강원도 철원군 갈말읍 문혜리 1105-23,38.1843594,127.3196839,강원도 철원군청,033-450-4873,무료개방,"14,00:00~24:00","15,00:00~24:00","16,00:00~24:00","17,00:00~24:00","18,00:00~24:00"
539,강원도,지포리주차장,노외,강원도 철원군 갈말읍 지포리 33 외,38.1473201,127.306473,강원도 철원군청,033-450-4873,무료개방,"14,00:00~24:00","15,00:00~24:00","16,00:00~24:00","17,00:00~24:00","18,00:00~24:00"
540,강원도,동송시장주차장(이평5리 마을회관),노외,강원도 철원군 동송읍 이평리 684-22,38.2071631,127.2204811,강원도 철원군청,033-450-4873,무료개방,"14,00:00~24:00","15,00:00~24:00","16,00:00~24:00","17,00:00~24:00","18,00:00~24:00"
541,강원도,하나로마트주차장,노외,강원도 철원군 동송읍 이평리 677-26 외,38.2088116,127.2199006,강원도 철원군청,033-450-4873,무료개방,"14,00:00~24:00","15,00:00~24:00","16,00:00~24:00","17,00:00~24:00","18,00:00~24:00"
542,강원도,동송공용주차장,노외,강원도 철원군 동송읍 이평리 675-1 외,38.2080282,127.2207676,강원도 철원군청,033-450-4873,무료개방,"14,00:00~24:00","15,00:00~24:00","16,00:00~24:00","17,00:00~24:00","18,00:00~24:00"
543,강원도,동송에너지공원주차장(중앙장로교회 옆),노외,강원도 철원군 동송읍 이평리 849-9,38.2068019,127.2148136,강원도 철원군청,033-450-4873,무료개방,"14,00:00~24:00","15,00:00~24:00","16,00:00~24:00","17,00:00~24:00","18,00:00~24:00"
544,강원도,동송읍사무소 앞(중앙장로교회 옆),노외,강원도 철원군 동송읍 이평리 860-15,38.1955975,127.2095826,강원도 철원군청,033-450-4873,무료개방,"14,00:00~24:00","15,00:00~24:00","16,00:00~24:00","17,00:00~24:00","18,00:00~24:00"
545,강원도,이평리 개나리아파트주차장,노외,강원도 철원군 동송읍 이평리 586 외,38.2012961,127.2238821,강원도 철원군청,033-450-4873,무료개방,"14,00:00~24:00","15,00:00~24:00","16,00:00~24:00","17,00:00~24:00","18,00:00~24:00"
546,강원도,이평리(구.재건중학교)공영주차장,노외,강원도 철원군 동송읍 이평리 840-4,38.2066388,127.2172325,강원도 철원군청,033-450-4873,무료개방,"14,00:00~24:00","15,00:00~24:00","16,00:00~24:00","17,00:00~24:00","18,00:00~24:00"
547,강원도,와수삼거리주차장(구. 김화지구대),노외,강원도 철원군 서면 와수리 1139-9,38.2374076,127.4368187,강원도 철원군청,033-450-4873,무료개방,"14,00:00~24:00","15,00:00~24:00","16,00:00~24:00","17,00:00~24:00","18,00:00~24:00"
548,강원도,와수시장주차장,노외,강원도 철원군 서면 와수리 1159-1 외,38.2383832,127.4390467,강원도 철원군청,033-450-4873,무료개방,"14,00:00~24:00","15,00:00~24:00","16,00:00~24:00","17,00:00~24:00","18,00:00~24:00"
549,강원도,우성연립주차장,노외,강원도 철원군 서면 와수리 1160-3 외,38.2377635,127.4394593,강원도 철원군청,033-450-4873,무료개방,"14,00:00~24:00","15,00:00~24:00","16,00:00~24:00","17,00:00~24:00","18,00:00~24:00"
550,강원도,무금천주차장,노외,강원도 철원군 서면 와수리 915-1 외,38.2415797,127.4422459,강원도 철원군청,033-450-4873,무료개방,"14,00:00~24:00","15,00:00~24:00","16,00:00~24:00","17,00:00~24:00","18,00:00~24:00"
551,강원도,와수출장소주차장,노외,강원도 철원군 서면 와수리 1171-114,38.2364728,127.4365002,강원도 철원군청,033-450-4873,무료개방,"14,00:00~24:00","15,00:00~24:00","16,00:00~24:00","17,00:00~24:00","18,00:00~24:00"
552,강원도,문화마을주차장,노외,강원도 철원군 서면 와수리 2410-4,38.2432072,127.4376011,강원도 철원군청,033-450-4873,무료개방,"14,00:00~24:00","15,00:00~24:00","16,00:00~24:00","17,00:00~24:00","18,00:00~24:00"
553,강원도,와수2리 주차장,노외,강원도 철원군 서면 와수리 1216-76,38.2390363,127.4369512,강원도 철원군청,033-450-4873,무료개방,"14,00:00~24:00","15,00:00~24:00","16,00:00~24:00","17,00:00~24:00","18,00:00~24:00"
554,강원도,자등리(김화농협)주차장,노외,강원도 철원군 서면 자등리 1823-61,38.185483,127.4179092,강원도 철원군청,033-450-4873,무료개방,"14,00:00~24:00","15,00:00~24:00","16,00:00~24:00","17,00:00~24:00","18,00:00~24:00"
555,강원도,읍경계~철원초교,노상,강원도 철원군 철원읍 금학로 297-18,38.2135859,127.212756,강원도 철원군청,033-450-4873,연휴기간 무료운영,"14,00:00~24:00","15,00:00~24:00","16,00:00~24:00","17,00:00~24:00","18,00:00~24:00"
556,강원도,읍경계~국제농기구,노상,강원도 철원군 철원읍 북원로 1483 ,38.2126708,127.2209088,강원도 철원군청,033-450-4873,연휴기간 무료운영,"14,00:00~24:00","15,00:00~24:00","16,00:00~24:00","17,00:00~24:00","18,00:00~24:00"
557,강원도,산불진화대기소~문화원,노상,강원도 철원군 갈말읍 삼부연로 51,38.1465863,127.3125449,강원도 철원군청,033-450-4873,연휴기간 무료운영,"14,00:00~24:00","15,00:00~24:00","16,00:00~24:00","17,00:00~24:00","18,00:00~24:00"
558,강원도,이평리쥬씨~오케이마트,노상,강원도 철원군 동송읍 금학로 175,38.2044996,127.2198941,강원도 철원군청,033-450-4873,연휴기간 무료운영,"14,00:00~24:00","15,00:00~24:00","16,00:00~24:00","17,00:00~24:00","18,00:00~24:00"
559,강원도,이평3리마을회관~대교천,노상,강원도 철원군 동송읍 이평로4번길 38,38.2104263,127.2196516,강원도 철원군청,033-450-4873,연휴기간 무료운영,"14,00:00~24:00","15,00:00~24:00","16,00:00~24:00","17,00:00~24:00","18,00:00~24:00"
560,강원도,읍경계~국제농기구,노상,강원도 철원군 동송읍 이평리 661-44,38.2119605,127.2219372,강원도 철원군청,033-450-4873,연휴기간 무료운영,"14,00:00~24:00","15,00:00~24:00","16,00:00~24:00","17,00:00~24:00","18,00:00~24:00"
561,강원도,종합공구~이브자리,노상,강원도 철원군 갈말읍 와수로 194-2 ,38.1401088,127.3276625,강원도 철원군청,033-450-4873,연휴기간 무료운영,"14,00:00~24:00","15,00:00~24:00","16,00:00~24:00","17,00:00~24:00","18,00:00~24:00"
